$GPGGA,171108.000,4302.1756,N,08924.1290,W,1,7,1.10,269.1,M,-34.2,M,,*6E
$GPGSA,A,3,07,26,27,08,04,09,16,,,,,,1.43,1.10,0.90*09
$GPRMC,171108.000,A,4302.1756,N,08924.1290,W,0.00,165.51,190320,,,A*70
$GPVTG,165.51,T,,M,0.00,N,0.00,K,A*3B
$GPGGA,171118.000,4302.1756,N,08924.1290,W,1,7,1.12,269.1,M,-34.2,M,,*6D
$GPGSA,A,3,07,26,27,08,04,09,16,,,,,,2.39,1.12,2.11*0E
$GPRMC,171118.000,A,4302.1756,N,08924.1290,W,0.00,165.51,190320,,,A*71
$GPVTG,165.51,T,,M,0.00,N,0.00,K,A*3B
$GPGGA,171128.000,4302.1756,N,08924.1290,W,1,7,1.12,269.1,M,-34.2,M,,*6E
$GPGSA,A,3,07,26,27,08,04,09,16,,,,,,2.39,1.12,2.11*0E
$GPRMC,171128.000,A,4302.1756,N,08924.1290,W,0.00,165.51,190320,,,A*72
$GPVTG,165.51,T,,M,0.00,N,0.00,K,A*3B
$GPGGA,171138.000,4302.1756,N,08924.1290,W,1,7,1.12,269.1,M,-34.2,M,,*6F
$GPGSA,A,3,07,26,27,08,04,09,16,,,,,,2.39,1.12,2.11*0E
$GPRMC,171138.000,A,4302.1756,N,08924.1290,W,0.00,165.51,190320,,,A*73
$GPVTG,165.51,T,,M,0.00,N,0.00,K,A*3B
$GPGGA,171148.000,4302.1756,N,08924.1290,W,1,7,1.12,269.1,M,-34.2,M,,*68
$GPGSA,A,3,07,26,27,08,04,09,16,,,,,,2.40,1.12,2.12*03
$GPRMC,171148.000,A,4302.1756,N,08924.1290,W,0.00,165.51,190320,,,A*74
$GPVTG,165.51,T,,M,0.00,N,0.00,K,A*3B
$GPGGA,171158.000,4302.1721,N,08924.1324,W,1,7,1.10,269.6,M,-34.2,M,,*62
$GPGSA,A,3,07,26,27,08,04,09,16,,,,,,1.43,1.10,0.90*09
$GPRMC,171158.000,A,4302.1721,N,08924.1324,W,0.00,283.52,190320,,,A*73
$GPVTG,283.52,T,,M,0.00,N,0.00,K,A*33
$GPGGA,171208.000,4302.1863,N,08924.1495,W,1,7,1.10,270.8,M,-34.2,M,,*66
$GPGSA,A,3,07,26,27,08,04,09,16,,,,,,1.43,1.10,0.90*09
$GPRMC,171208.000,A,4302.1863,N,08924.1495,W,8.89,323.28,190320,,,A*7E
$GPVTG,323.28,T,,M,8.89,N,16.48,K,A*07
$GPGGA,171218.000,4302.2060,N,08924.1718,W,1,7,1.10,272.4,M,-34.2,M,,*67
$GPGSA,A,3,07,26,27,08,04,09,16,,,,,,1.43,1.10,0.91*08
$GPRMC,171218.000,A,4302.2060,N,08924.1718,W,4.93,318.61,190320,,,A*73
$GPVTG,318.61,T,,M,4.93,N,9.14,K,A*32
$GPGGA,171228.000,4302.2122,N,08924.2082,W,1,6,1.39,272.6,M,-34.2,M,,*6C
$GPGSA,A,3,07,27,08,04,09,16,,,,,,,1.68,1.39,0.94*0B
$GPRMC,171228.000,A,4302.2122,N,08924.2082,W,9.33,301.95,190320,,,A*74
$GPVTG,301.95,T,,M,9.33,N,17.30,K,A*0F
$GPGGA,171238.000,4302.2270,N,08924.2487,W,1,6,1.39,272.1,M,-34.2,M,,*6F
$GPGSA,A,3,07,27,08,04,09,16,,,,,,,1.68,1.39,0.94*0B
$GPRMC,171238.000,A,4302.2270,N,08924.2487,W,15.44,298.51,190320,,,A*44
$GPVTG,298.51,T,,M,15.44,N,28.60,K,A*32
$GPGGA,171248.000,4302.2361,N,08924.2768,W,1,7,1.11,271.4,M,-34.2,M,,*66
$GPGSA,A,3,07,26,27,08,04,09,16,,,,,,1.43,1.11,0.91*09
$GPRMC,171248.000,A,4302.2361,N,08924.2768,W,0.00,292.13,190320,,,A*78
$GPVTG,292.13,T,,M,0.00,N,0.00,K,A*36
$GPGGA,171258.000,4302.2361,N,08924.2768,W,1,6,1.39,271.4,M,-34.2,M,,*6C
$GPGSA,A,3,07,27,08,04,09,16,,,,,,,1.68,1.39,0.94*0B
$GPRMC,171258.000,A,4302.2361,N,08924.2768,W,0.00,292.13,190320,,,A*79
$GPVTG,292.13,T,,M,0.00,N,0.00,K,A*36
$GPGGA,171308.000,4302.2361,N,08924.2768,W,1,6,1.39,271.4,M,-34.2,M,,*68
$GPGSA,A,3,07,27,08,04,09,16,,,,,,,1.68,1.39,0.94*0B
$GPRMC,171308.000,A,4302.2361,N,08924.2768,W,0.00,292.13,190320,,,A*7D
$GPVTG,292.13,T,,M,0.00,N,0.00,K,A*36
$GPGGA,171318.000,4302.2361,N,08924.2768,W,1,6,1.39,271.4,M,-34.2,M,,*69
$GPGSA,A,3,07,27,08,04,09,16,,,,,,,1.68,1.39,0.94*0B
$GPRMC,171318.000,A,4302.2361,N,08924.2768,W,0.00,292.13,190320,,,A*7C
$GPVTG,292.13,T,,M,0.00,N,0.00,K,A*36
$GPGGA,171328.000,4302.2115,N,08924.3149,W,1,7,1.11,274.5,M,-34.2,M,,*60
$GPGSA,A,3,07,26,27,08,04,09,16,,,,,,1.43,1.11,0.91*09
$GPRMC,171328.000,A,4302.2115,N,08924.3149,W,24.27,206.31,190320,,,A*44
$GPVTG,206.31,T,,M,24.27,N,44.97,K,A*36
$GPGGA,171338.000,4302.1551,N,08924.3587,W,1,7,1.11,277.3,M,-34.2,M,,*65
$GPGSA,A,3,07,26,27,08,04,09,16,,,,,,1.43,1.11,0.91*09
$GPRMC,171338.000,A,4302.1551,N,08924.3587,W,17.42,209.78,190320,,,A*45
$GPVTG,209.78,T,,M,17.42,N,32.28,K,A*32
$GPGGA,171348.000,4302.1375,N,08924.3724,W,1,7,1.13,278.0,M,-34.2,M,,*67
$GPGSA,A,3,07,26,27,08,04,09,16,,,,,,2.45,1.13,2.17*02
$GPRMC,171348.000,A,4302.1375,N,08924.3724,W,9.72,210.17,190320,,,A*74
$GPVTG,210.17,T,,M,9.72,N,18.00,K,A*0D
$GPGGA,171358.000,4302.0886,N,08924.4092,W,1,7,1.13,281.3,M,-34.2,M,,*68
$GPGSA,A,3,07,26,27,08,04,09,16,,,,,,2.45,1.13,2.18*0D
$GPRMC,171358.000,A,4302.0886,N,08924.4092,W,25.11,208.01,190320,,,A*4B
$GPVTG,208.01,T,,M,25.11,N,46.54,K,A*32
$GPGGA,171408.000,4302.0298,N,08924.4457,W,1,7,1.11,277.2,M,-34.2,M,,*68
$GPGSA,A,3,07,26,27,08,04,09,16,,,,,,1.43,1.11,0.91*09
$GPRMC,171408.000,A,4302.0298,N,08924.4457,W,15.75,204.62,190320,,,A*49
$GPVTG,204.62,T,,M,15.75,N,29.18,K,A*3B
$GPGGA,171418.000,4302.0142,N,08924.4568,W,1,7,1.11,275.5,M,-34.2,M,,*65
$GPGSA,A,3,07,26,27,08,04,09,16,,,,,,1.43,1.11,0.91*09
$GPRMC,171418.000,A,4302.0142,N,08924.4568,W,0.00,206.80,190320,,,A*79
$GPVTG,206.80,T,,M,0.00,N,0.00,K,A*31
$GPGGA,171428.000,4302.0142,N,08924.4568,W,1,7,1.11,275.5,M,-34.2,M,,*66
$GPGSA,A,3,07,26,27,08,04,09,16,,,,,,1.43,1.11,0.91*09
$GPRMC,171428.000,A,4302.0142,N,08924.4568,W,0.00,206.80,190320,,,A*7A
$GPVTG,206.80,T,,M,0.00,N,0.00,K,A*31
$GPGGA,171438.000,4302.0142,N,08924.4568,W,1,7,1.14,275.5,M,-34.2,M,,*62
$GPGSA,A,3,07,26,27,08,04,09,16,,,,,,2.47,1.14,2.19*09
$GPRMC,171438.000,A,4302.0142,N,08924.4568,W,0.00,206.80,190320,,,A*7B
$GPVTG,206.80,T,,M,0.00,N,0.00,K,A*31
$GPGGA,171448.000,4302.0142,N,08924.4568,W,1,7,1.11,275.5,M,-34.2,M,,*60
$GPGSA,A,3,07,26,27,08,04,09,16,,,,,,1.43,1.11,0.91*09
$GPRMC,171448.000,A,4302.0142,N,08924.4568,W,0.00,206.80,190320,,,A*7C
$GPVTG,206.80,T,,M,0.00,N,0.00,K,A*31
$GPGGA,171458.000,4302.0142,N,08924.4568,W,1,7,1.11,275.5,M,-34.2,M,,*61
$GPGSA,A,3,07,26,27,08,04,09,16,,,,,,1.43,1.11,0.91*09
$GPRMC,171458.000,A,4302.0142,N,08924.4568,W,0.00,206.80,190320,,,A*7D
$GPVTG,206.80,T,,M,0.00,N,0.00,K,A*31
$GPGGA,171508.000,4302.0142,N,08924.4568,W,1,7,1.14,275.5,M,-34.2,M,,*60
$GPGSA,A,3,07,26,27,08,04,09,16,,,,,,2.48,1.14,2.21*0D
$GPRMC,171508.000,A,4302.0142,N,08924.4568,W,0.00,206.80,190320,,,A*79
$GPVTG,206.80,T,,M,0.00,N,0.00,K,A*31
$GPGGA,171518.000,4302.0142,N,08924.4568,W,1,7,1.14,275.5,M,-34.2,M,,*61
$GPGSA,A,3,07,26,27,08,04,09,16,,,,,,2.49,1.14,2.21*0C
$GPRMC,171518.000,A,4302.0142,N,08924.4568,W,0.00,206.80,190320,,,A*78
$GPVTG,206.80,T,,M,0.00,N,0.00,K,A*31
$GPGGA,171528.000,4301.9951,N,08924.4401,W,1,7,1.14,274.2,M,-34.2,M,,*6A
$GPGSA,A,3,07,26,27,08,04,09,16,,,,,,2.50,1.14,2.22*07
$GPRMC,171528.000,A,4301.9951,N,08924.4401,W,21.03,114.90,190320,,,A*44
$GPVTG,114.90,T,,M,21.03,N,38.97,K,A*35
$GPGGA,171538.000,4302.0034,N,08924.3361,W,1,7,1.11,272.5,M,-34.2,M,,*69
$GPGSA,A,3,07,26,27,08,04,09,16,,,,,,1.44,1.11,0.91*0E
$GPRMC,171538.000,A,4302.0034,N,08924.3361,W,32.31,46.43,190320,,,A*78
$GPVTG,46.43,T,,M,32.31,N,59.87,K,A*08
$GPGGA,171548.000,4302.0680,N,08924.2314,W,1,7,1.11,272.6,M,-34.2,M,,*67
$GPGSA,A,3,07,26,27,08,04,09,16,,,,,,1.44,1.11,0.91*0E
$GPRMC,171548.000,A,4302.0680,N,08924.2314,W,42.24,83.89,190320,,,A*79
$GPVTG,83.89,T,,M,42.24,N,78.28,K,A*02
$GPGGA,171558.000,4302.0695,N,08924.0767,W,1,7,1.11,277.0,M,-34.2,M,,*63
$GPGSA,A,3,07,26,27,08,04,09,16,,,,,,1.44,1.11,0.91*0E
$GPRMC,171558.000,A,4302.0695,N,08924.0767,W,35.19,84.72,190320,,,A*73
$GPVTG,84.72,T,,M,35.19,N,65.20,K,A*0B
$GPGGA,171608.000,4302.0844,N,08923.9487,W,1,7,1.11,278.7,M,-34.2,M,,*6C
$GPGSA,A,3,07,26,27,08,04,09,16,,,,,,1.44,1.11,0.91*0E
$GPRMC,171608.000,A,4302.0844,N,08923.9487,W,33.50,76.43,190320,,,A*70
$GPVTG,76.43,T,,M,33.50,N,62.08,K,A*02
$GPGGA,171618.000,4302.1105,N,08923.8320,W,1,7,1.11,280.1,M,-34.2,M,,*6A
$GPGSA,A,3,07,26,27,08,04,09,16,,,,,,1.44,1.11,0.91*0E
$GPRMC,171618.000,A,4302.1105,N,08923.8320,W,31.03,71.21,190320,,,A*70
$GPVTG,71.21,T,,M,31.03,N,57.49,K,A*06
$GPGGA,171628.000,4302.1093,N,08923.7175,W,1,7,1.11,281.6,M,-34.2,M,,*6C
$GPGSA,A,3,07,26,27,08,04,09,16,,,,,,1.44,1.11,0.91*0E
$GPRMC,171628.000,A,4302.1093,N,08923.7175,W,33.50,111.46,190320,,,A*42
$GPVTG,111.46,T,,M,33.50,N,62.07,K,A*38
$GPGGA,171638.000,4302.0512,N,08923.5787,W,1,6,1.43,280.8,M,-34.2,M,,*60
$GPGSA,A,3,26,27,08,04,09,16,,,,,,,1.72,1.43,0.96*0C
$GPRMC,171638.000,A,4302.0512,N,08923.5787,W,49.57,120.25,190320,,,A*4A
$GPVTG,120.25,T,,M,49.57,N,91.86,K,A*30
$GPGGA,171648.000,4301.9752,N,08923.4022,W,1,7,1.11,274.9,M,-34.2,M,,*6E
$GPGSA,A,3,07,26,27,08,04,09,16,,,,,,1.44,1.11,0.91*0E
$GPRMC,171648.000,A,4301.9752,N,08923.4022,W,56.03,120.44,190320,,,A*40
$GPVTG,120.44,T,,M,56.03,N,103.82,K,A*06
$GPGGA,171658.000,4301.8889,N,08923.2274,W,1,7,1.11,272.8,M,-34.2,M,,*67
$GPGSA,A,3,07,26,27,08,04,09,16,,,,,,1.44,1.11,0.91*0E
$GPRMC,171658.000,A,4301.8889,N,08923.2274,W,54.44,131.33,190320,,,A*4F
$GPVTG,131.33,T,,M,54.44,N,100.88,K,A*0E
$GPGGA,171708.000,4301.7690,N,08923.0968,W,1,7,1.11,269.8,M,-34.2,M,,*64
$GPGSA,A,3,07,26,27,08,04,09,16,,,,,,1.44,1.11,0.91*0E
$GPRMC,171708.000,A,4301.7690,N,08923.0968,W,56.37,149.08,190320,,,A*47
$GPVTG,149.08,T,,M,56.37,N,104.46,K,A*09
$GPGGA,171718.000,4301.6203,N,08923.0041,W,1,7,1.11,267.4,M,-34.2,M,,*6A
$GPGSA,A,3,07,26,27,08,04,09,16,,,,,,1.44,1.11,0.92*0D
$GPRMC,171718.000,A,4301.6203,N,08923.0041,W,61.77,158.94,190320,,,A*4E
$GPVTG,158.94,T,,M,61.77,N,114.46,K,A*0D
$GPGGA,171728.000,4301.4532,N,08922.9376,W,1,7,1.11,269.4,M,-34.2,M,,*6F
$GPGSA,A,3,07,26,27,08,04,09,16,,,,,,1.44,1.11,0.92*0D
$GPRMC,171728.000,A,4301.4532,N,08922.9376,W,61.18,166.09,190320,,,A*45
$GPVTG,166.09,T,,M,61.18,N,113.38,K,A*03
$GPGGA,171738.000,4301.2849,N,08922.8978,W,1,7,1.11,271.5,M,-34.2,M,,*64
$GPGSA,A,3,07,26,27,08,04,09,16,,,,,,1.44,1.11,0.92*0D
$GPRMC,171738.000,A,4301.2849,N,08922.8978,W,62.54,173.42,190320,,,A*46
$GPVTG,173.42,T,,M,62.54,N,115.88,K,A*0E
$GPGGA,171748.000,4301.1070,N,08922.8886,W,1,7,1.11,269.9,M,-34.2,M,,*67
$GPGSA,A,3,07,26,27,08,04,09,16,,,,,,1.44,1.11,0.92*0D
$GPRMC,171748.000,A,4301.1070,N,08922.8886,W,64.54,181.75,190320,,,A*4F
$GPVTG,181.75,T,,M,64.54,N,119.60,K,A*0B
$GPGGA,171758.000,4300.9309,N,08922.9133,W,1,7,1.11,275.8,M,-34.2,M,,*68
$GPGSA,A,3,07,26,27,08,04,09,16,,,,,,1.44,1.11,0.92*0D
$GPRMC,171758.000,A,4300.9309,N,08922.9133,W,62.88,188.10,190320,,,A*41
$GPVTG,188.10,T,,M,62.88,N,116.51,K,A*0B
$GPGGA,171808.000,4300.7580,N,08922.9453,W,1,7,1.11,282.0,M,-34.2,M,,*68
$GPGSA,A,3,07,26,27,08,04,09,16,,,,,,1.44,1.11,0.92*0D
$GPRMC,171808.000,A,4300.7580,N,08922.9453,W,62.57,187.81,190320,,,A*44
$GPVTG,187.81,T,,M,62.57,N,115.93,K,A*03
$GPGGA,171818.000,4300.5830,N,08922.9786,W,1,7,1.11,280.1,M,-34.2,M,,*65
$GPGSA,A,3,07,26,27,08,04,09,16,,,,,,1.44,1.11,0.92*0D
$GPRMC,171818.000,A,4300.5830,N,08922.9786,W,64.44,189.01,190320,,,A*48
$GPVTG,189.01,T,,M,64.44,N,119.40,K,A*03
$GPGGA,171828.000,4300.4058,N,08923.0209,W,1,7,1.11,273.4,M,-34.2,M,,*62
$GPGSA,A,3,07,26,27,08,04,09,16,,,,,,1.44,1.11,0.92*0D
$GPRMC,171828.000,A,4300.4058,N,08923.0209,W,64.15,190.10,190320,,,A*4A
$GPVTG,190.10,T,,M,64.15,N,118.86,K,A*04
$GPGGA,171838.000,4300.2298,N,08923.0648,W,1,7,1.17,267.8,M,-34.2,M,,*65
$GPGSA,A,3,07,26,27,08,04,09,16,,,,,,2.59,1.17,2.31*0F
$GPRMC,171838.000,A,4300.2298,N,08923.0648,W,64.51,190.33,190320,,,A*43
$GPVTG,190.33,T,,M,64.51,N,119.54,K,A*0B
$GPGGA,171848.000,4300.0534,N,08923.1083,W,1,7,1.11,266.2,M,-34.2,M,,*6C
$GPGSA,A,3,07,26,27,08,04,09,16,,,,,,1.44,1.11,0.92*0D
$GPRMC,171848.000,A,4300.0534,N,08923.1083,W,64.28,190.18,190320,,,A*40
$GPVTG,190.18,T,,M,64.28,N,119.10,K,A*0C
$GPGGA,171858.000,4259.8768,N,08923.1513,W,1,7,1.11,266.3,M,-34.2,M,,*6E
$GPGSA,A,3,07,26,27,08,04,09,16,,,,,,1.44,1.11,0.92*0D
$GPRMC,171858.000,A,4259.8768,N,08923.1513,W,64.06,189.22,190320,,,A*4E
$GPVTG,189.22,T,,M,64.06,N,118.70,K,A*06
$GPGGA,171908.000,4259.7034,N,08923.1780,W,1,7,1.12,271.3,M,-34.2,M,,*66
$GPGSA,A,3,07,26,27,08,04,09,16,,,,,,1.44,1.12,0.92*0E
$GPRMC,171908.000,A,4259.7034,N,08923.1780,W,62.18,184.02,190320,,,A*45
$GPVTG,184.02,T,,M,62.18,N,115.22,K,A*0A
$GPGGA,171918.000,4259.5314,N,08923.1842,W,1,7,1.12,277.6,M,-34.2,M,,*66
$GPGSA,A,3,07,26,27,08,04,09,16,,,,,,1.45,1.12,0.92*0F
$GPRMC,171918.000,A,4259.5314,N,08923.1842,W,64.27,180.94,190320,,,A*47
$GPVTG,180.94,T,,M,64.27,N,119.09,K,A*0E
$GPGGA,171928.000,4259.3507,N,08923.1858,W,1,7,1.12,284.3,M,-34.2,M,,*65
$GPGSA,A,3,07,26,27,08,04,09,16,,,,,,1.45,1.12,0.92*0F
$GPRMC,171928.000,A,4259.3507,N,08923.1858,W,64.88,180.53,190320,,,A*43
$GPVTG,180.53,T,,M,64.88,N,120.23,K,A*02
$GPGGA,171938.000,4259.1704,N,08923.1878,W,1,7,1.12,282.5,M,-34.2,M,,*65
$GPGSA,A,3,07,26,27,08,04,09,16,,,,,,1.45,1.12,0.92*0F
$GPRMC,171938.000,A,4259.1704,N,08923.1878,W,64.57,180.54,190320,,,A*46
$GPVTG,180.54,T,,M,64.57,N,119.65,K,A*0F
$GPGGA,171948.000,4258.9909,N,08923.1902,W,1,7,1.12,280.8,M,-34.2,M,,*6B
$GPGSA,A,3,07,26,27,08,04,09,16,,,,,,1.45,1.12,0.92*0F
$GPRMC,171948.000,A,4258.9909,N,08923.1902,W,64.48,180.64,190320,,,A*4A
$GPVTG,180.64,T,,M,64.48,N,119.47,K,A*02
$GPGGA,171958.000,4258.8151,N,08923.1919,W,1,7,1.18,287.6,M,-34.2,M,,*67
$GPGSA,A,3,07,26,27,08,04,09,16,,,,,,2.63,1.18,2.35*0D
$GPRMC,171958.000,A,4258.8151,N,08923.1919,W,62.10,180.70,190320,,,A*4B
$GPVTG,180.70,T,,M,62.10,N,115.07,K,A*04
$GPGGA,172008.000,4258.6427,N,08923.1940,W,1,7,1.18,297.2,M,-34.2,M,,*6B
$GPGSA,A,3,07,26,27,08,04,09,16,,,,,,2.64,1.18,2.36*09
$GPRMC,172008.000,A,4258.6427,N,08923.1940,W,64.13,180.32,190320,,,A*41
$GPVTG,180.32,T,,M,64.13,N,118.82,K,A*07
$GPGGA,172018.000,4258.4618,N,08923.1961,W,1,7,1.12,297.2,M,-34.2,M,,*6F
$GPGSA,A,3,07,26,27,08,04,09,16,,,,,,1.45,1.12,0.92*0F
$GPRMC,172018.000,A,4258.4618,N,08923.1961,W,65.04,180.44,190320,,,A*49
$GPVTG,180.44,T,,M,65.04,N,120.52,K,A*07
$GPGGA,172028.000,4258.2826,N,08923.1984,W,1,7,1.18,288.5,M,-34.2,M,,*61
$GPGSA,A,3,07,26,27,08,04,09,16,,,,,,2.65,1.18,2.37*09
$GPRMC,172028.000,A,4258.2826,N,08923.1984,W,62.68,182.20,190320,,,A*49
$GPVTG,182.20,T,,M,62.68,N,116.15,K,A*0C
$GPGGA,172038.000,4258.1079,N,08923.2112,W,1,7,1.19,279.2,M,-34.2,M,,*6D
$GPGSA,A,3,07,26,27,08,04,09,16,,,,,,2.65,1.19,2.37*08
$GPRMC,172038.000,A,4258.1079,N,08923.2112,W,66.61,185.56,190320,,,A*46
$GPVTG,185.56,T,,M,66.61,N,123.44,K,A*05
$GPGGA,172048.000,4257.9170,N,08923.2394,W,1,7,1.19,277.9,M,-34.2,M,,*6C
$GPGSA,A,3,07,26,27,08,04,09,16,,,,,,2.66,1.19,2.38*04
$GPRMC,172048.000,A,4257.9170,N,08923.2394,W,69.79,186.05,190320,,,A*41
$GPVTG,186.05,T,,M,69.79,N,129.33,K,A*0C
$GPGGA,172058.000,4257.7300,N,08923.2656,W,1,7,1.19,289.0,M,-34.2,M,,*65
$GPGSA,A,3,07,26,27,08,04,09,16,,,,,,2.66,1.19,2.38*04
$GPRMC,172058.000,A,4257.7300,N,08923.2656,W,66.10,186.03,190320,,,A*46
$GPVTG,186.03,T,,M,66.10,N,122.48,K,A*0D
$GPGGA,172108.000,4257.5511,N,08923.2678,W,1,7,1.19,294.9,M,-34.2,M,,*6C
$GPGSA,A,3,07,26,27,08,04,09,16,,,,,,2.67,1.19,2.39*04
$GPRMC,172108.000,A,4257.5511,N,08923.2678,W,64.87,169.36,190320,,,A*41
$GPVTG,169.36,T,,M,64.87,N,120.20,K,A*0A
$GPGGA,172118.000,4257.3877,N,08923.1621,W,1,7,1.12,295.6,M,-34.2,M,,*6C
$GPGSA,A,3,07,26,27,08,04,09,16,,,,,,1.45,1.12,0.92*0F
$GPRMC,172118.000,A,4257.3877,N,08923.1621,W,66.20,140.46,190320,,,A*47
$GPVTG,140.46,T,,M,66.20,N,122.67,K,A*08
$GPGGA,172128.000,4257.2698,N,08922.9684,W,1,7,1.12,294.6,M,-34.2,M,,*66
$GPGSA,A,3,07,26,27,08,04,09,16,,,,,,1.45,1.12,0.92*0F
$GPRMC,172128.000,A,4257.2698,N,08922.9684,W,66.04,127.46,190320,,,A*4B
$GPVTG,127.46,T,,M,66.04,N,122.37,K,A*0A
$GPGGA,172138.000,4257.1575,N,08922.7679,W,1,7,1.19,298.2,M,-34.2,M,,*6B
$GPGSA,A,3,07,26,27,08,04,09,16,,,,,,2.68,1.19,2.40*05
$GPRMC,172138.000,A,4257.1575,N,08922.7679,W,66.23,126.87,190320,,,A*4C
$GPVTG,126.87,T,,M,66.23,N,122.73,K,A*03
$GPGGA,172148.000,4257.0471,N,08922.5657,W,1,7,1.12,295.5,M,-34.2,M,,*67
$GPGSA,A,3,07,26,27,08,04,09,16,,,,,,1.45,1.12,0.92*0F
$GPRMC,172148.000,A,4257.0471,N,08922.5657,W,66.64,126.97,190320,,,A*43
$GPVTG,126.97,T,,M,66.64,N,123.48,K,A*08
$GPGGA,172158.000,4256.9227,N,08922.3791,W,1,7,1.12,288.8,M,-34.2,M,,*67
$GPGSA,A,3,07,26,27,08,04,09,16,,,,,,1.45,1.12,0.92*0F
$GPRMC,172158.000,A,4256.9227,N,08922.3791,W,67.31,140.04,190320,,,A*49
$GPVTG,140.04,T,,M,67.31,N,124.73,K,A*0C
$GPGGA,172208.000,4256.7629,N,08922.2488,W,1,7,1.12,287.8,M,-34.2,M,,*60
$GPGSA,A,3,07,26,27,08,04,09,16,,,,,,1.45,1.12,0.92*0F
$GPRMC,172208.000,A,4256.7629,N,08922.2488,W,65.81,157.52,190320,,,A*4D
$GPVTG,157.52,T,,M,65.81,N,121.95,K,A*0D
$GPGGA,172218.000,4256.5859,N,08922.1909,W,1,7,1.12,283.1,M,-34.2,M,,*60
$GPGSA,A,3,07,26,27,08,04,09,16,,,,,,1.45,1.12,0.92*0F
$GPRMC,172218.000,A,4256.5859,N,08922.1909,W,65.00,174.15,190320,,,A*4B
$GPVTG,174.15,T,,M,65.00,N,120.44,K,A*0B
$GPGGA,172228.000,4256.4029,N,08922.1913,W,1,7,1.12,280.5,M,-34.2,M,,*61
$GPGSA,A,3,07,26,27,08,04,09,16,,,,,,1.45,1.12,0.92*0F
$GPRMC,172228.000,A,4256.4029,N,08922.1913,W,65.74,181.66,190320,,,A*40
$GPVTG,181.66,T,,M,65.74,N,121.82,K,A*0D
$GPGGA,172238.000,4256.2211,N,08922.1984,W,1,7,1.12,276.8,M,-34.2,M,,*65
$GPGSA,A,3,07,26,27,08,04,09,16,,,,,,1.45,1.12,0.93*0E
$GPRMC,172238.000,A,4256.2211,N,08922.1984,W,65.63,181.39,190320,,,A*4C
$GPVTG,181.39,T,,M,65.63,N,121.61,K,A*0C
$GPGGA,172248.000,4256.0435,N,08922.2035,W,1,7,1.12,279.0,M,-34.2,M,,*67
$GPGSA,A,3,07,26,27,08,04,09,16,,,,,,1.45,1.12,0.93*0E
$GPRMC,172248.000,A,4256.0435,N,08922.2035,W,63.67,181.69,190320,,,A*4E
$GPVTG,181.69,T,,M,63.67,N,117.98,K,A*08
$GPGGA,172258.000,4255.8632,N,08922.2091,W,1,7,1.21,275.5,M,-34.2,M,,*6F
$GPGSA,A,3,07,26,27,08,04,09,16,,,,,,2.73,1.21,2.45*01
$GPRMC,172258.000,A,4255.8632,N,08922.2091,W,65.44,181.37,190320,,,A*43
$GPVTG,181.37,T,,M,65.44,N,121.25,K,A*07
$GPGGA,172308.000,4255.6794,N,08922.2026,W,1,7,1.21,277.5,M,-34.2,M,,*66
$GPGSA,A,3,07,26,27,08,04,09,16,,,,,,2.74,1.21,2.45*06
$GPRMC,172308.000,A,4255.6794,N,08922.2026,W,66.82,175.99,190320,,,A*4E
$GPVTG,175.99,T,,M,66.82,N,123.82,K,A*0E
$GPGGA,172318.000,4255.5021,N,08922.1735,W,1,7,1.21,278.0,M,-34.2,M,,*61
$GPGSA,A,3,07,26,27,08,04,09,16,,,,,,2.74,1.21,2.46*05
$GPRMC,172318.000,A,4255.5021,N,08922.1735,W,59.71,170.52,190320,,,A*41
$GPVTG,170.52,T,,M,59.71,N,110.64,K,A*04
$GPGGA,172328.000,4255.3496,N,08922.1316,W,1,7,1.21,278.3,M,-34.2,M,,*6A
$GPGSA,A,3,07,26,27,08,04,09,16,,,,,,2.75,1.21,2.47*05
$GPRMC,172328.000,A,4255.3496,N,08922.1316,W,54.45,166.78,190320,,,A*4C
$GPVTG,166.78,T,,M,54.45,N,100.89,K,A*03
$GPGGA,172338.000,4255.2176,N,08922.0915,W,1,7,1.12,280.6,M,-34.2,M,,*6B
$GPGSA,A,3,07,26,27,08,04,09,16,,,,,,1.46,1.12,0.93*0D
$GPRMC,172338.000,A,4255.2176,N,08922.0915,W,43.46,171.04,190320,,,A*47
$GPVTG,171.04,T,,M,43.46,N,80.53,K,A*35
$GPGGA,172348.000,4255.1160,N,08922.0734,W,1,7,1.22,281.9,M,-34.2,M,,*68
$GPGSA,A,3,07,26,27,08,04,09,16,,,,,,2.76,1.22,2.48*0A
$GPRMC,172348.000,A,4255.1160,N,08922.0734,W,29.92,176.70,190320,,,A*48
$GPVTG,176.70,T,,M,29.92,N,55.43,K,A*3D
$GPGGA,172358.000,4255.0730,N,08922.0742,W,1,7,1.12,279.9,M,-34.2,M,,*6E
$GPGSA,A,3,07,26,27,08,04,09,16,,,,,,1.46,1.12,0.93*0D
$GPRMC,172358.000,A,4255.0730,N,08922.0742,W,3.93,202.12,190320,,,A*77
$GPVTG,202.12,T,,M,3.93,N,7.28,K,A*3A
$GPGGA,172408.000,4255.0484,N,08922.0739,W,1,7,1.12,280.8,M,-34.2,M,,*6B
$GPGSA,A,3,07,26,27,08,04,09,16,,,,,,1.46,1.12,0.93*0D
$GPRMC,172408.000,A,4255.0484,N,08922.0739,W,15.45,105.52,190320,,,A*49
$GPVTG,105.52,T,,M,15.45,N,28.63,K,A*34
$GPGGA,172418.000,4255.0551,N,08922.0053,W,1,7,1.13,281.7,M,-34.2,M,,*67
$GPGSA,A,3,07,26,27,08,04,09,16,,,,,,1.46,1.13,0.93*0C
$GPRMC,172418.000,A,4255.0551,N,08922.0053,W,19.14,98.33,190320,,,A*70
$GPVTG,98.33,T,,M,19.14,N,35.47,K,A*04
$GPGGA,172428.000,4255.0562,N,08921.9253,W,1,7,1.13,282.1,M,-34.2,M,,*69
$GPGSA,A,3,07,26,27,08,04,09,16,,,,,,1.46,1.13,0.93*0C
$GPRMC,172428.000,A,4255.0562,N,08921.9253,W,28.16,81.52,190320,,,A*74
$GPVTG,81.52,T,,M,28.16,N,52.18,K,A*00
$GPGGA,172438.000,4255.0650,N,08921.7990,W,1,7,1.13,282.3,M,-34.2,M,,*62
$GPGSA,A,3,07,26,27,08,04,09,16,,,,,,1.46,1.13,0.93*0C
$GPRMC,172438.000,A,4255.0650,N,08921.7990,W,36.86,86.63,190320,,,A*7E
$GPVTG,86.63,T,,M,36.86,N,68.31,K,A*01
$GPGGA,172448.000,4255.0694,N,08921.6459,W,1,7,1.13,282.0,M,-34.2,M,,*67
$GPGSA,A,3,07,26,27,08,04,09,16,,,,,,1.46,1.13,0.93*0C
$GPRMC,172448.000,A,4255.0694,N,08921.6459,W,44.23,88.01,190320,,,A*78
$GPVTG,88.01,T,,M,44.23,N,81.97,K,A*0A
$GPGGA,172458.000,4255.0739,N,08921.4651,W,1,7,1.13,281.4,M,-34.2,M,,*6F
$GPGSA,A,3,07,26,27,08,04,09,16,,,,,,1.46,1.13,0.93*0C
$GPRMC,172458.000,A,4255.0739,N,08921.4651,W,50.08,87.97,190320,,,A*7B
$GPVTG,87.97,T,,M,50.08,N,92.81,K,A*03
$GPGGA,172508.000,4255.0789,N,08921.2699,W,1,7,1.13,281.3,M,-34.2,M,,*65
$GPGSA,A,3,07,26,27,08,04,09,16,,,,,,1.46,1.13,0.93*0C
$GPRMC,172508.000,A,4255.0789,N,08921.2699,W,51.87,87.88,190320,,,A*7E
$GPVTG,87.88,T,,M,51.87,N,96.12,K,A*05
$GPGGA,172518.000,4255.0836,N,08921.0907,W,1,7,1.13,281.6,M,-34.2,M,,*60
$GPGSA,A,3,07,26,27,08,04,09,16,,,,,,1.46,1.13,0.93*0C
$GPRMC,172518.000,A,4255.0836,N,08921.0907,W,47.11,88.12,190320,,,A*7A
$GPVTG,88.12,T,,M,47.11,N,87.29,K,A*09
$GPGGA,172528.000,4255.0880,N,08920.9048,W,1,6,1.49,286.1,M,-34.2,M,,*6A
$GPGSA,A,3,26,27,08,04,09,16,,,,,,,1.77,1.49,0.96*03
$GPRMC,172528.000,A,4255.0880,N,08920.9048,W,49.30,88.00,190320,,,A*70
$GPVTG,88.00,T,,M,49.30,N,91.36,K,A*0E
$GPGGA,172538.000,4255.0926,N,08920.7263,W,1,7,1.13,293.0,M,-34.2,M,,*68
$GPGSA,A,3,07,26,27,08,04,09,16,,,,,,1.46,1.13,0.93*0C
$GPRMC,172538.000,A,4255.0926,N,08920.7263,W,45.98,88.32,190320,,,A*76
$GPVTG,88.32,T,,M,45.98,N,85.20,K,A*03
$GPGGA,172548.000,4255.0972,N,08920.5421,W,1,7,1.13,297.5,M,-34.2,M,,*6D
$GPGSA,A,3,07,26,27,08,04,09,16,,,,,,1.46,1.13,0.93*0C
$GPRMC,172548.000,A,4255.0972,N,08920.5421,W,51.72,88.03,190320,,,A*71
$GPVTG,88.03,T,,M,51.72,N,95.83,K,A*08
$GPGGA,172558.000,4255.1013,N,08920.3469,W,1,6,1.20,298.6,M,-34.2,M,,*64
$GPGSA,A,3,07,26,27,08,09,16,,,,,,,1.52,1.20,0.93*0D
$GPRMC,172558.000,A,4255.1013,N,08920.3469,W,49.58,89.01,190320,,,A*77
$GPVTG,89.01,T,,M,49.58,N,91.86,K,A*0B
$GPGGA,172608.000,4255.1038,N,08920.1563,W,1,7,1.13,297.2,M,-34.2,M,,*68
$GPGSA,A,3,07,26,27,08,04,09,16,,,,,,1.46,1.13,0.93*0C
$GPRMC,172608.000,A,4255.1038,N,08920.1563,W,50.65,88.88,190320,,,A*77
$GPVTG,88.88,T,,M,50.65,N,93.86,K,A*0F
$GPGGA,172618.000,4255.1063,N,08919.9617,W,1,6,1.20,296.2,M,-34.2,M,,*65
$GPGSA,A,3,07,26,27,08,09,16,,,,,,,1.52,1.20,0.93*0D
$GPRMC,172618.000,A,4255.1063,N,08919.9617,W,51.02,88.98,190320,,,A*7B
$GPVTG,88.98,T,,M,51.02,N,94.54,K,A*06
$GPGGA,172628.000,4255.1094,N,08919.7693,W,1,7,1.13,290.9,M,-34.2,M,,*60
$GPGSA,A,3,07,26,27,08,04,09,16,,,,,,1.46,1.13,0.93*0C
$GPRMC,172628.000,A,4255.1094,N,08919.7693,W,51.88,88.36,190320,,,A*74
$GPVTG,88.36,T,,M,51.88,N,96.13,K,A*01
$GPGGA,172638.000,4255.1129,N,08919.5744,W,1,7,1.25,281.1,M,-34.2,M,,*62
$GPGSA,A,3,07,26,27,08,04,09,16,,,,,,2.85,1.25,2.57*0F
$GPRMC,172638.000,A,4255.1129,N,08919.5744,W,50.93,88.56,190320,,,A*76
$GPVTG,88.56,T,,M,50.93,N,94.37,K,A*08
$GPGGA,172648.000,4255.1166,N,08919.3774,W,1,7,1.13,277.5,M,-34.2,M,,*63
$GPGSA,A,3,07,26,27,08,04,09,16,,,,,,1.46,1.13,0.93*0C
$GPRMC,172648.000,A,4255.1166,N,08919.3774,W,53.54,88.45,190320,,,A*75
$GPVTG,88.45,T,,M,53.54,N,99.22,K,A*0B
$GPGGA,172658.000,4255.1203,N,08919.1770,W,1,6,1.21,276.5,M,-34.2,M,,*65
$GPGSA,A,3,07,26,27,08,09,16,,,,,,,1.53,1.21,0.93*0D
$GPRMC,172658.000,A,4255.1203,N,08919.1770,W,52.43,88.63,190320,,,A*71
$GPVTG,88.63,T,,M,52.43,N,97.15,K,A*02
$GPGGA,172708.000,4255.1250,N,08918.9851,W,1,7,1.13,275.6,M,-34.2,M,,*62
$GPGSA,A,3,07,26,27,08,04,09,16,,,,,,1.47,1.13,0.93*0D
$GPRMC,172708.000,A,4255.1250,N,08918.9851,W,49.30,87.84,190320,,,A*7E
$GPVTG,87.84,T,,M,49.30,N,91.35,K,A*0E
$GPGGA,172718.000,4255.1303,N,08918.7905,W,1,7,1.13,274.7,M,-34.2,M,,*6A
$GPGSA,A,3,07,26,27,08,04,09,16,,,,,,1.47,1.13,0.93*0D
$GPRMC,172718.000,A,4255.1303,N,08918.7905,W,53.31,87.52,190320,,,A*77
$GPVTG,87.52,T,,M,53.31,N,98.79,K,A*0E
$GPGGA,172728.000,4255.1354,N,08918.5918,W,1,7,1.13,274.6,M,-34.2,M,,*64
$GPGSA,A,3,07,26,27,08,04,09,16,,,,,,1.47,1.13,0.93*0D
$GPRMC,172728.000,A,4255.1354,N,08918.5918,W,51.13,89.42,190320,,,A*75
$GPVTG,89.42,T,,M,51.13,N,94.75,K,A*03
$GPGGA,172738.000,4255.1359,N,08918.3931,W,1,7,1.13,274.2,M,-34.2,M,,*61
$GPGSA,A,3,07,26,27,08,04,09,16,,,,,,1.47,1.13,0.93*0D
$GPRMC,172738.000,A,4255.1359,N,08918.3931,W,52.00,89.75,190320,,,A*71
$GPVTG,89.75,T,,M,52.00,N,96.35,K,A*00
$GPGGA,172748.000,4255.1368,N,08918.2035,W,1,7,1.13,274.1,M,-34.2,M,,*6B
$GPGSA,A,3,07,26,27,08,04,09,16,,,,,,1.47,1.13,0.93*0D
$GPRMC,172748.000,A,4255.1368,N,08918.2035,W,49.79,89.69,190320,,,A*71
$GPVTG,89.69,T,,M,49.79,N,92.27,K,A*0E
$GPGGA,172758.000,4255.1371,N,08918.0130,W,1,7,1.26,274.8,M,-34.2,M,,*6B
$GPGSA,A,3,07,26,27,08,04,09,16,,,,,,2.90,1.26,2.61*0D
$GPRMC,172758.000,A,4255.1371,N,08918.0130,W,51.47,89.80,190320,,,A*7D
$GPVTG,89.80,T,,M,51.47,N,95.38,K,A*04
$GPGGA,172808.000,4255.1374,N,08917.8181,W,1,7,1.13,275.5,M,-34.2,M,,*63
$GPGSA,A,3,07,26,27,08,04,09,16,,,,,,1.47,1.13,0.93*0D
$GPRMC,172808.000,A,4255.1374,N,08917.8181,W,51.87,89.85,190320,,,A*76
$GPVTG,89.85,T,,M,51.87,N,96.11,K,A*05
$GPGGA,172818.000,4255.1376,N,08917.6231,W,1,7,1.13,276.4,M,-34.2,M,,*64
$GPGSA,A,3,07,26,27,08,04,09,16,,,,,,1.47,1.13,0.93*0D
$GPRMC,172818.000,A,4255.1376,N,08917.6231,W,51.23,89.84,190320,,,A*7C
$GPVTG,89.84,T,,M,51.23,N,94.94,K,A*05
$GPGGA,172828.000,4255.1365,N,08917.4312,W,1,7,1.27,277.7,M,-34.2,M,,*62
$GPGSA,A,3,07,26,27,08,04,09,16,,,,,,2.91,1.27,2.62*0E
$GPRMC,172828.000,A,4255.1365,N,08917.4312,W,51.34,90.96,190320,,,A*72
$GPVTG,90.96,T,,M,51.34,N,95.14,K,A*01
$GPGGA,172838.000,4255.1338,N,08917.2391,W,1,7,1.27,279.3,M,-34.2,M,,*6C
$GPGSA,A,3,07,26,27,08,04,09,16,,,,,,2.92,1.27,2.63*0C
$GPRMC,172838.000,A,4255.1338,N,08917.2391,W,49.93,91.10,190320,,,A*7D
$GPVTG,91.10,T,,M,49.93,N,92.53,K,A*0E
$GPGGA,172848.000,4255.1313,N,08917.0489,W,1,7,1.27,280.8,M,-34.2,M,,*63
$GPGSA,A,3,07,26,27,08,04,09,16,,,,,,2.92,1.27,2.63*0C
$GPRMC,172848.000,A,4255.1313,N,08917.0489,W,51.32,91.06,190320,,,A*7A
$GPVTG,91.06,T,,M,51.32,N,95.10,K,A*0B
$GPGGA,172858.000,4255.1284,N,08916.8582,W,1,7,1.13,279.7,M,-34.2,M,,*60
$GPGSA,A,3,07,26,27,08,04,09,16,,,,,,1.47,1.13,0.93*0D
$GPRMC,172858.000,A,4255.1284,N,08916.8582,W,50.21,91.21,190320,,,A*71
$GPVTG,91.21,T,,M,50.21,N,93.04,K,A*0E
$GPGGA,172908.000,4255.1250,N,08916.6657,W,1,7,1.28,276.1,M,-34.2,M,,*69
$GPGSA,A,3,07,26,27,08,04,09,16,,,,,,2.93,1.28,2.64*05
$GPRMC,172908.000,A,4255.1250,N,08916.6657,W,51.51,91.32,190320,,,A*7D
$GPVTG,91.32,T,,M,51.51,N,95.44,K,A*08
$GPGGA,172918.000,4255.1219,N,08916.4709,W,1,7,1.28,275.1,M,-34.2,M,,*6E
$GPGSA,A,3,07,26,27,08,04,09,16,,,,,,2.94,1.28,2.64*02
$GPRMC,172918.000,A,4255.1219,N,08916.4709,W,51.34,91.16,190320,,,A*7C
$GPVTG,91.16,T,,M,51.34,N,95.13,K,A*0F
$GPGGA,172928.000,4255.1186,N,08916.2808,W,1,7,1.28,276.7,M,-34.2,M,,*65
$GPGSA,A,3,07,26,27,08,04,09,16,,,,,,2.94,1.28,2.65*03
$GPRMC,172928.000,A,4255.1186,N,08916.2808,W,49.50,91.20,190320,,,A*7C
$GPVTG,91.20,T,,M,49.50,N,91.73,K,A*03
$GPGGA,172938.000,4255.1158,N,08916.0910,W,1,7,1.28,278.2,M,-34.2,M,,*66
$GPGSA,A,3,07,26,27,08,04,09,16,,,,,,2.95,1.28,2.65*02
$GPRMC,172938.000,A,4255.1158,N,08916.0910,W,51.36,91.05,190320,,,A*7A
$GPVTG,91.05,T,,M,51.36,N,95.17,K,A*0B
$GPGGA,172948.000,4255.1120,N,08915.8995,W,1,7,1.28,279.7,M,-34.2,M,,*6C
$GPGSA,A,3,07,26,27,08,04,09,16,,,,,,2.95,1.28,2.66*01
$GPRMC,172948.000,A,4255.1120,N,08915.8995,W,50.89,92.56,190320,,,A*74
$GPVTG,92.56,T,,M,50.89,N,94.30,K,A*0F
$GPGGA,172958.000,4255.1064,N,08915.7129,W,1,7,1.29,279.9,M,-34.2,M,,*63
$GPGSA,A,3,07,26,27,08,04,09,16,,,,,,2.96,1.29,2.66*03
$GPRMC,172958.000,A,4255.1064,N,08915.7129,W,47.72,92.21,190320,,,A*76
$GPVTG,92.21,T,,M,47.72,N,88.42,K,A*05
$GPGGA,173008.000,4255.1015,N,08915.5378,W,1,7,1.29,278.5,M,-34.2,M,,*61
$GPGSA,A,3,07,26,27,08,04,09,16,,,,,,2.96,1.29,2.67*02
$GPRMC,173008.000,A,4255.1015,N,08915.5378,W,44.31,92.21,190320,,,A*7D
$GPVTG,92.21,T,,M,44.31,N,82.10,K,A*0C
$GPGGA,173018.000,4255.0968,N,08915.3779,W,1,7,1.29,278.6,M,-34.2,M,,*62
$GPGSA,A,3,07,26,27,08,04,09,16,,,,,,2.97,1.29,2.67*03
$GPRMC,173018.000,A,4255.0968,N,08915.3779,W,40.57,92.73,190320,,,A*7E
$GPVTG,92.73,T,,M,40.57,N,75.17,K,A*00
$GPGGA,173028.000,4255.0892,N,08915.2359,W,1,7,1.29,279.4,M,-34.2,M,,*61
$GPGSA,A,3,07,26,27,08,04,09,16,,,,,,2.97,1.29,2.68*0C
$GPRMC,173028.000,A,4255.0892,N,08915.2359,W,34.04,90.07,190320,,,A*7A
$GPVTG,90.07,T,,M,34.04,N,63.08,K,A*0D
$GPGGA,173038.000,4255.0899,N,08915.1372,W,1,7,1.14,278.9,M,-34.2,M,,*63
$GPGSA,A,3,07,26,27,08,04,09,16,,,,,,1.47,1.14,0.94*0D
$GPRMC,173038.000,A,4255.0899,N,08915.1372,W,20.77,119.35,190320,,,A*4A
$GPVTG,119.35,T,,M,20.77,N,38.49,K,A*36
$GPGGA,173048.000,4255.0870,N,08915.0501,W,1,8,1.15,276.7,M,-34.2,M,,*6E
$GPGSA,A,3,07,26,30,27,08,04,09,16,,,,,2.01,1.15,1.65*01
$GPRMC,173048.000,A,4255.0870,N,08915.0501,W,28.23,85.20,190320,,,A*70
$GPVTG,85.20,T,,M,28.23,N,52.31,K,A*0C
$GPGGA,173058.000,4255.0983,N,08914.9712,W,1,8,1.05,273.4,M,-34.2,M,,*6D
$GPGSA,A,3,07,26,30,27,08,04,09,16,,,,,1.35,1.05,0.86*08
$GPRMC,173058.000,A,4255.0983,N,08914.9712,W,9.78,69.60,190320,,,A*4F
$GPVTG,69.60,T,,M,9.78,N,18.13,K,A*39
$GPGGA,173108.000,4255.1043,N,08914.9540,W,1,8,1.05,272.2,M,-34.2,M,,*6F
$GPGSA,A,3,07,26,30,27,08,04,09,16,,,,,1.35,1.05,0.86*08
$GPRMC,173108.000,A,4255.1043,N,08914.9540,W,10.85,68.37,190320,,,A*73
$GPVTG,68.37,T,,M,10.85,N,20.10,K,A*08
$GPGGA,173118.000,4255.0940,N,08914.8945,W,1,8,1.15,272.5,M,-34.2,M,,*6B
$GPGSA,A,3,07,26,30,27,08,04,09,16,,,,,2.02,1.15,1.66*01
$GPRMC,173118.000,A,4255.0940,N,08914.8945,W,22.02,110.39,190320,,,A*4F
$GPVTG,110.39,T,,M,22.02,N,40.80,K,A*39
$GPGGA,173128.000,4255.0831,N,08914.8038,W,1,8,1.15,273.4,M,-34.2,M,,*6C
$GPGSA,A,3,07,26,30,27,08,04,09,16,,,,,2.03,1.15,1.66*00
$GPRMC,173128.000,A,4255.0831,N,08914.8038,W,24.15,90.93,190320,,,A*71
$GPVTG,90.93,T,,M,24.15,N,44.75,K,A*0E
$GPGGA,173138.000,4255.0853,N,08914.7141,W,1,8,1.15,274.7,M,-34.2,M,,*6D
$GPGSA,A,3,07,26,30,27,08,04,09,16,,,,,2.03,1.15,1.67*01
$GPRMC,173138.000,A,4255.0853,N,08914.7141,W,22.35,87.73,190320,,,A*78
$GPVTG,87.73,T,,M,22.35,N,41.41,K,A*00
$GPGGA,173148.000,4255.0876,N,08914.6306,W,1,8,1.05,277.2,M,-34.2,M,,*6A
$GPGSA,A,3,07,26,30,27,08,04,09,16,,,,,1.35,1.05,0.86*08
$GPRMC,173148.000,A,4255.0876,N,08914.6306,W,22.13,88.56,190320,,,A*74
$GPVTG,88.56,T,,M,22.13,N,41.01,K,A*08
$GPGGA,173158.000,4255.0899,N,08914.5469,W,1,8,1.05,280.2,M,-34.2,M,,*6F
$GPGSA,A,3,07,26,30,27,08,04,09,16,,,,,1.35,1.05,0.86*08
$GPRMC,173158.000,A,4255.0899,N,08914.5469,W,22.31,87.87,190320,,,A*7A
$GPVTG,87.87,T,,M,22.31,N,41.33,K,A*0A
$GPGGA,173208.000,4255.0921,N,08914.4646,W,1,8,1.05,281.8,M,-34.2,M,,*6E
$GPGSA,A,3,07,26,30,27,08,04,09,16,,,,,1.35,1.05,0.86*08
$GPRMC,173208.000,A,4255.0921,N,08914.4646,W,20.95,88.05,190320,,,A*79
$GPVTG,88.05,T,,M,20.95,N,38.83,K,A*06
$GPGGA,173218.000,4255.0943,N,08914.3912,W,1,8,1.16,282.8,M,-34.2,M,,*63
$GPGSA,A,3,07,26,30,27,08,04,09,16,,,,,2.04,1.16,1.68*0A
$GPRMC,173218.000,A,4255.0943,N,08914.3912,W,21.17,87.60,190320,,,A*72
$GPVTG,87.60,T,,M,21.17,N,39.23,K,A*0A
$GPGGA,173228.000,4255.0970,N,08914.3073,W,1,8,1.16,278.9,M,-34.2,M,,*6A
$GPGSA,A,3,07,26,30,27,08,04,09,16,,,,,2.04,1.16,1.68*0A
$GPRMC,173228.000,A,4255.0970,N,08914.3073,W,23.82,87.44,190320,,,A*77
$GPVTG,87.44,T,,M,23.82,N,44.15,K,A*0D
$GPGGA,173238.000,4255.0994,N,08914.2154,W,1,8,1.16,275.9,M,-34.2,M,,*69
$GPGSA,A,3,07,26,30,27,08,04,09,16,,,,,2.04,1.16,1.68*0A
$GPRMC,173238.000,A,4255.0994,N,08914.2154,W,24.90,92.49,190320,,,A*74
$GPVTG,92.49,T,,M,24.90,N,46.14,K,A*03
$GPGGA,173248.000,4255.0786,N,08914.1244,W,1,8,1.16,272.6,M,-34.2,M,,*6A
$GPGSA,A,3,07,26,30,27,08,04,09,16,,,,,2.05,1.16,1.68*0B
$GPRMC,173248.000,A,4255.0786,N,08914.1244,W,24.81,116.84,190320,,,A*43
$GPVTG,116.84,T,,M,24.81,N,45.96,K,A*36
$GPGGA,173258.000,4255.0459,N,08914.0371,W,1,7,1.14,270.7,M,-34.2,M,,*62
$GPGSA,A,3,07,26,27,08,04,09,16,,,,,,1.48,1.14,0.94*02
$GPRMC,173258.000,A,4255.0459,N,08914.0371,W,26.76,117.04,190320,,,A*46
$GPVTG,117.04,T,,M,26.76,N,49.59,K,A*3A
$GPGGA,173308.000,4255.0163,N,08913.9538,W,1,8,1.16,270.9,M,-34.2,M,,*6C
$GPGSA,A,3,07,26,30,27,08,04,09,16,,,,,2.05,1.16,1.69*0A
$GPRMC,173308.000,A,4255.0163,N,08913.9538,W,23.59,109.01,190320,,,A*49
$GPVTG,109.01,T,,M,23.59,N,43.71,K,A*38
$GPGGA,173318.000,4255.0078,N,08913.8796,W,1,8,1.16,270.4,M,-34.2,M,,*6C
$GPGSA,A,3,07,26,30,27,08,04,09,16,,,,,2.05,1.16,1.69*0A
$GPRMC,173318.000,A,4255.0078,N,08913.8796,W,13.12,88.69,190320,,,A*7E
$GPVTG,88.69,T,,M,13.12,N,24.31,K,A*07
$GPGGA,173328.000,4255.0089,N,08913.8607,W,1,8,1.05,270.0,M,-34.2,M,,*6E
$GPGSA,A,3,07,26,30,27,08,04,09,16,,,,,1.36,1.05,0.86*0B
$GPRMC,173328.000,A,4255.0089,N,08913.8607,W,0.00,87.65,190320,,,A*48
$GPVTG,87.65,T,,M,0.00,N,0.00,K,A*01
$GPGGA,173338.000,4255.0098,N,08913.8301,W,1,8,1.17,268.7,M,-34.2,M,,*61
$GPGSA,A,3,07,26,30,27,08,04,09,16,,,,,2.06,1.17,1.70*00
$GPRMC,173338.000,A,4255.0098,N,08913.8301,W,18.35,90.07,190320,,,A*77
$GPVTG,90.07,T,,M,18.35,N,34.00,K,A*0B
$GPGGA,173348.000,4255.0098,N,08913.7496,W,1,8,1.17,265.2,M,-34.2,M,,*68
$GPGSA,A,3,07,26,30,27,08,04,09,16,,,,,2.06,1.17,1.70*00
$GPRMC,173348.000,A,4255.0098,N,08913.7496,W,21.71,91.10,190320,,,A*7B
$GPVTG,91.10,T,,M,21.71,N,40.24,K,A*03
$GPGGA,173358.000,4255.0090,N,08913.6666,W,1,8,1.17,266.4,M,-34.2,M,,*68
$GPGSA,A,3,07,26,30,27,08,04,09,16,,,,,2.06,1.17,1.70*00
$GPRMC,173358.000,A,4255.0090,N,08913.6666,W,22.38,91.13,190320,,,A*73
$GPVTG,91.13,T,,M,22.38,N,41.47,K,A*0A
$GPGGA,173408.000,4255.0082,N,08913.5822,W,1,8,1.17,267.4,M,-34.2,M,,*65
$GPGSA,A,3,07,26,30,27,08,04,09,16,,,,,2.07,1.17,1.70*01
$GPRMC,173408.000,A,4255.0082,N,08913.5822,W,22.40,90.16,190320,,,A*74
$GPVTG,90.16,T,,M,22.40,N,41.51,K,A*06
$GPGGA,173418.000,4255.0074,N,08913.4966,W,1,8,1.17,266.5,M,-34.2,M,,*6D
$GPGSA,A,3,07,26,30,27,08,04,09,16,,,,,2.07,1.17,1.71*00
$GPRMC,173418.000,A,4255.0074,N,08913.4966,W,22.62,90.98,190320,,,A*7A
$GPVTG,90.98,T,,M,22.62,N,41.91,K,A*0C
$GPGGA,173428.000,4255.0071,N,08913.4094,W,1,8,1.17,262.7,M,-34.2,M,,*69
$GPGSA,A,3,07,26,30,27,08,04,09,16,,,,,2.07,1.17,1.71*00
$GPRMC,173428.000,A,4255.0071,N,08913.4094,W,22.01,90.56,190320,,,A*7F
$GPVTG,90.56,T,,M,22.01,N,40.79,K,A*0C
$GPGGA,173438.000,4255.0072,N,08913.3288,W,1,8,1.17,262.8,M,-34.2,M,,*6C
$GPGSA,A,3,07,26,30,27,08,04,09,16,,,,,2.07,1.17,1.71*00
$GPRMC,173438.000,A,4255.0072,N,08913.3288,W,19.70,90.82,190320,,,A*72
$GPVTG,90.82,T,,M,19.70,N,36.50,K,A*01
$GPGGA,173448.000,4255.0061,N,08913.2588,W,1,8,1.17,264.8,M,-34.2,M,,*69
$GPGSA,A,3,07,26,30,27,08,04,09,16,,,,,2.08,1.17,1.71*0F
$GPRMC,173448.000,A,4255.0061,N,08913.2588,W,15.90,92.10,190320,,,A*7A
$GPVTG,92.10,T,,M,15.90,N,29.46,K,A*03
$GPGGA,173458.000,4255.0051,N,08913.2189,W,1,8,1.17,266.5,M,-34.2,M,,*61
$GPGSA,A,3,07,26,30,27,08,04,09,16,,,,,2.08,1.17,1.72*0C
$GPRMC,173458.000,A,4255.0051,N,08913.2189,W,15.39,90.96,190320,,,A*72
$GPVTG,90.96,T,,M,15.39,N,28.52,K,A*08
$GPGGA,173508.000,4255.0032,N,08913.1592,W,1,8,1.05,270.6,M,-34.2,M,,*6A
$GPGSA,A,3,07,26,30,27,08,04,09,16,,,,,1.36,1.05,0.86*0B
$GPRMC,173508.000,A,4255.0032,N,08913.1592,W,12.83,95.09,190320,,,A*7B
$GPVTG,95.09,T,,M,12.83,N,23.77,K,A*01
$GPGGA,173518.000,4254.9735,N,08913.1472,W,1,8,1.05,271.9,M,-34.2,M,,*62
$GPGSA,A,3,07,26,30,27,08,04,09,16,,,,,1.36,1.05,0.86*0B
$GPRMC,173518.000,A,4254.9735,N,08913.1472,W,15.85,180.03,190320,,,A*43
$GPVTG,180.03,T,,M,15.85,N,29.38,K,A*3E
$GPGGA,173528.000,4254.9531,N,08913.1504,W,1,8,1.05,273.3,M,-34.2,M,,*6F
$GPGSA,A,3,07,26,30,27,08,04,09,16,,,,,1.36,1.05,0.86*0B
$GPRMC,173528.000,A,4254.9531,N,08913.1504,W,6.87,235.92,190320,,,A*73
$GPVTG,235.92,T,,M,6.87,N,12.74,K,A*0B
$GPGGA,173538.000,4254.9535,N,08913.2019,W,1,8,1.18,275.3,M,-34.2,M,,*6A
$GPGSA,A,3,07,26,30,27,08,04,09,16,,,,,2.09,1.18,1.72*02
$GPRMC,173538.000,A,4254.9535,N,08913.2019,W,13.94,272.05,190320,,,A*47
$GPVTG,272.05,T,,M,13.94,N,25.84,K,A*3B
$GPGGA,173548.000,4254.9726,N,08913.2238,W,1,8,1.18,274.6,M,-34.2,M,,*68
$GPGSA,A,3,07,26,30,27,08,04,09,16,,,,,2.09,1.18,1.73*03
$GPRMC,173548.000,A,4254.9726,N,08913.2238,W,10.22,358.59,190320,,,A*4F
$GPVTG,358.59,T,,M,10.22,N,18.94,K,A*3A
$GPGGA,173558.000,4254.9934,N,08913.2187,W,1,8,1.18,277.7,M,-34.2,M,,*61
$GPGSA,A,3,07,26,30,27,08,04,09,16,,,,,2.09,1.18,1.73*03
$GPRMC,173558.000,A,4254.9934,N,08913.2187,W,3.95,8.32,190320,,,A*71
$GPVTG,8.32,T,,M,3.95,N,7.32,K,A*3D
$GPGGA,173608.000,4254.9939,N,08913.2194,W,1,8,1.05,278.0,M,-34.2,M,,*6C
$GPGSA,A,3,07,26,30,27,08,04,09,16,,,,,1.36,1.05,0.87*0A
$GPRMC,173608.000,A,4254.9939,N,08913.2194,W,0.00,11.98,190320,,,A*4F
$GPVTG,11.98,T,,M,0.00,N,0.00,K,A*0C
$GPGGA,173618.000,4254.9939,N,08913.2194,W,1,8,1.05,278.0,M,-34.2,M,,*6D
$GPGSA,A,3,07,26,30,27,08,04,09,16,,,,,1.36,1.05,0.87*0A
$GPRMC,173618.000,A,4254.9939,N,08913.2194,W,0.00,11.98,190320,,,A*4E
$GPVTG,11.98,T,,M,0.00,N,0.00,K,A*0C
$GPGGA,173628.000,4254.9939,N,08913.2194,W,1,8,1.05,278.0,M,-34.2,M,,*6E
$GPGSA,A,3,07,26,30,27,08,04,09,16,,,,,1.36,1.05,0.87*0A
$GPRMC,173628.000,A,4254.9939,N,08913.2194,W,0.00,11.98,190320,,,A*4D
$GPVTG,11.98,T,,M,0.00,N,0.00,K,A*0C
$GPGGA,173638.000,4254.9939,N,08913.2194,W,1,7,1.21,278.0,M,-34.2,M,,*66
$GPGSA,A,3,07,30,27,08,04,09,16,,,,,,1.51,1.21,0.90*0F
$GPRMC,173638.000,A,4254.9939,N,08913.2194,W,0.00,11.98,190320,,,A*4C
$GPVTG,11.98,T,,M,0.00,N,0.00,K,A*0C
$GPGGA,173648.000,4254.9939,N,08913.2194,W,1,7,1.21,278.0,M,-34.2,M,,*61
$GPGSA,A,3,07,30,27,08,04,09,16,,,,,,1.51,1.21,0.90*0F
$GPRMC,173648.000,A,4254.9939,N,08913.2194,W,0.00,11.98,190320,,,A*4B
$GPVTG,11.98,T,,M,0.00,N,0.00,K,A*0C
$GPGGA,173658.000,4254.9939,N,08913.2194,W,1,7,1.21,278.0,M,-34.2,M,,*60
$GPGSA,A,3,07,30,27,08,04,09,16,,,,,,1.51,1.21,0.90*0F
$GPRMC,173658.000,A,4254.9939,N,08913.2194,W,0.00,11.98,190320,,,A*4A
$GPVTG,11.98,T,,M,0.00,N,0.00,K,A*0C
$GPGGA,173708.000,4254.9939,N,08913.2194,W,1,8,1.05,278.0,M,-34.2,M,,*6D
$GPGSA,A,3,07,26,30,27,08,04,09,16,,,,,1.36,1.05,0.87*0A
$GPRMC,173708.000,A,4254.9939,N,08913.2194,W,0.00,11.98,190320,,,A*4E
$GPVTG,11.98,T,,M,0.00,N,0.00,K,A*0C
$GPGGA,173718.000,4254.9939,N,08913.2194,W,1,7,1.21,278.0,M,-34.2,M,,*65
$GPGSA,A,3,07,30,27,08,04,09,16,,,,,,1.51,1.21,0.90*0F
$GPRMC,173718.000,A,4254.9939,N,08913.2194,W,0.00,11.98,190320,,,A*4F
$GPVTG,11.98,T,,M,0.00,N,0.00,K,A*0C
$GPGGA,173728.000,4254.9939,N,08913.2194,W,1,7,1.21,278.0,M,-34.2,M,,*66
$GPGSA,A,3,07,30,27,08,04,09,16,,,,,,1.51,1.21,0.90*0F
$GPRMC,173728.000,A,4254.9939,N,08913.2194,W,0.00,11.98,190320,,,A*4C
$GPVTG,11.98,T,,M,0.00,N,0.00,K,A*0C
$GPGGA,173738.000,4254.9939,N,08913.2194,W,1,7,1.21,278.0,M,-34.2,M,,*67
$GPGSA,A,3,07,30,27,08,04,09,16,,,,,,1.51,1.21,0.91*0E
$GPRMC,173738.000,A,4254.9939,N,08913.2194,W,0.00,11.98,190320,,,A*4D
$GPVTG,11.98,T,,M,0.00,N,0.00,K,A*0C
$GPGGA,173748.000,4254.9939,N,08913.2194,W,1,7,1.32,278.0,M,-34.2,M,,*62
$GPGSA,A,3,07,30,27,08,04,09,16,,,,,,2.51,1.32,2.13*07
$GPRMC,173748.000,A,4254.9939,N,08913.2194,W,0.00,11.98,190320,,,A*4A
$GPVTG,11.98,T,,M,0.00,N,0.00,K,A*0C
$GPGGA,173758.000,4254.9939,N,08913.2194,W,1,8,1.19,278.0,M,-34.2,M,,*65
$GPGSA,A,3,07,26,30,27,08,04,09,16,,,,,2.12,1.19,1.75*0E
$GPRMC,173758.000,A,4254.9939,N,08913.2194,W,0.00,11.98,190320,,,A*4B
$GPVTG,11.98,T,,M,0.00,N,0.00,K,A*0C
$GPGGA,173808.000,4254.9939,N,08913.2194,W,1,8,1.05,278.0,M,-34.2,M,,*62
$GPGSA,A,3,07,26,30,27,08,04,09,16,,,,,1.36,1.05,0.87*0A
$GPRMC,173808.000,A,4254.9939,N,08913.2194,W,0.00,11.98,190320,,,A*41
$GPVTG,11.98,T,,M,0.00,N,0.00,K,A*0C
$GPGGA,173818.000,4254.9939,N,08913.2194,W,1,8,1.19,278.0,M,-34.2,M,,*6E
$GPGSA,A,3,07,26,30,27,08,04,09,16,,,,,2.12,1.19,1.76*0D
$GPRMC,173818.000,A,4254.9939,N,08913.2194,W,0.00,11.98,190320,,,A*40
$GPVTG,11.98,T,,M,0.00,N,0.00,K,A*0C
$GPGGA,173828.000,4254.9939,N,08913.2194,W,1,8,1.19,278.0,M,-34.2,M,,*6D
$GPGSA,A,3,07,26,30,27,08,04,09,16,,,,,2.12,1.19,1.76*0D
$GPRMC,173828.000,A,4254.9939,N,08913.2194,W,0.00,11.98,190320,,,A*43
$GPVTG,11.98,T,,M,0.00,N,0.00,K,A*0C
$GPGGA,173838.000,4254.9939,N,08913.2194,W,1,7,1.07,278.0,M,-34.2,M,,*6C
$GPGSA,A,3,07,26,30,08,04,09,16,,,,,,1.38,1.07,0.88*0C
$GPRMC,173838.000,A,4254.9939,N,08913.2194,W,0.00,11.98,190320,,,A*42
$GPVTG,11.98,T,,M,0.00,N,0.00,K,A*0C
$GPGGA,173848.000,4254.9939,N,08913.2194,W,1,8,1.05,278.0,M,-34.2,M,,*66
$GPGSA,A,3,07,26,30,27,08,04,09,16,,,,,1.36,1.05,0.87*0A
$GPRMC,173848.000,A,4254.9939,N,08913.2194,W,0.00,11.98,190320,,,A*45
$GPVTG,11.98,T,,M,0.00,N,0.00,K,A*0C
$GPGGA,173858.000,4254.9939,N,08913.2194,W,1,8,1.19,278.0,M,-34.2,M,,*6A
$GPGSA,A,3,07,26,30,27,08,04,09,16,,,,,2.13,1.19,1.77*0D
$GPRMC,173858.000,A,4254.9939,N,08913.2194,W,0.00,11.98,190320,,,A*44
$GPVTG,11.98,T,,M,0.00,N,0.00,K,A*0C
$GPGGA,173908.000,4254.9939,N,08913.2194,W,1,8,1.05,278.0,M,-34.2,M,,*63
$GPGSA,A,3,07,26,30,27,08,04,09,16,,,,,1.36,1.05,0.87*0A
$GPRMC,173908.000,A,4254.9939,N,08913.2194,W,0.00,11.98,190320,,,A*40
$GPVTG,11.98,T,,M,0.00,N,0.00,K,A*0C
$GPGGA,173918.000,4254.9939,N,08913.2194,W,1,7,1.24,278.0,M,-34.2,M,,*6E
$GPGSA,A,3,07,26,30,27,04,09,16,,,,,,1.52,1.24,0.88*0C
$GPRMC,173918.000,A,4254.9939,N,08913.2194,W,0.00,11.98,190320,,,A*41
$GPVTG,11.98,T,,M,0.00,N,0.00,K,A*0C
$GPGGA,173928.000,4255.0020,N,08913.2210,W,1,8,1.05,279.5,M,-34.2,M,,*63
$GPGSA,A,3,07,26,30,27,08,04,09,16,,,,,1.36,1.05,0.87*0A
$GPRMC,173928.000,A,4255.0020,N,08913.2210,W,0.00,10.56,190320,,,A*47
$GPVTG,10.56,T,,M,0.00,N,0.00,K,A*0F
$GPGGA,173938.000,4255.0020,N,08913.2210,W,1,8,1.19,279.5,M,-34.2,M,,*6F
$GPGSA,A,3,07,26,30,27,08,04,09,16,,,,,2.14,1.19,1.77*0A
$GPRMC,173938.000,A,4255.0020,N,08913.2210,W,0.00,10.56,190320,,,A*46
$GPVTG,10.56,T,,M,0.00,N,0.00,K,A*0F
$GPGGA,173948.000,4255.0132,N,08913.2264,W,1,8,1.05,278.3,M,-34.2,M,,*63
$GPGSA,A,3,07,26,30,27,08,04,09,16,,,,,1.37,1.05,0.87*0B
$GPRMC,173948.000,A,4255.0132,N,08913.2264,W,13.68,312.51,190320,,,A*4A
$GPVTG,312.51,T,,M,13.68,N,25.35,K,A*34
$GPGGA,173958.000,4255.0169,N,08913.3012,W,1,8,1.05,278.8,M,-34.2,M,,*65
$GPGSA,A,3,07,26,30,27,08,04,09,16,,,,,1.37,1.05,0.87*0B
$GPRMC,173958.000,A,4255.0169,N,08913.3012,W,20.26,272.01,190320,,,A*4F
$GPVTG,272.01,T,,M,20.26,N,37.54,K,A*38
$GPGGA,174008.000,4255.0151,N,08913.3854,W,1,8,1.05,277.2,M,-34.2,M,,*6A
$GPGSA,A,3,07,26,30,27,08,04,09,16,,,,,1.37,1.05,0.87*0B
$GPRMC,174008.000,A,4255.0151,N,08913.3854,W,22.02,272.10,190320,,,A*41
$GPVTG,272.10,T,,M,22.02,N,40.80,K,A*35
$GPGGA,174018.000,4255.0159,N,08913.4673,W,1,8,1.05,277.0,M,-34.2,M,,*6D
$GPGSA,A,3,07,26,30,27,08,04,09,16,,,,,1.37,1.05,0.87*0B
$GPRMC,174018.000,A,4255.0159,N,08913.4673,W,21.95,269.87,190320,,,A*4D
$GPVTG,269.87,T,,M,21.95,N,40.68,K,A*3A
$GPGGA,174028.000,4255.0162,N,08913.5557,W,1,8,1.05,277.4,M,-34.2,M,,*66
$GPGSA,A,3,07,26,30,27,08,04,09,16,,,,,1.37,1.05,0.87*0B
$GPRMC,174028.000,A,4255.0162,N,08913.5557,W,23.66,271.08,190320,,,A*42
$GPVTG,271.08,T,,M,23.66,N,43.83,K,A*3C
$GPGGA,174038.000,4255.0162,N,08913.6482,W,1,8,1.05,276.2,M,-34.2,M,,*6A
$GPGSA,A,3,07,26,30,27,08,04,09,16,,,,,1.37,1.05,0.87*0B
$GPRMC,174038.000,A,4255.0162,N,08913.6482,W,24.52,270.96,190320,,,A*4F
$GPVTG,270.96,T,,M,24.52,N,45.43,K,A*30
$GPGGA,174048.000,4255.0170,N,08913.7438,W,1,8,1.05,273.5,M,-34.2,M,,*6C
$GPGSA,A,3,07,26,30,27,08,04,09,16,,,,,1.37,1.05,0.87*0B
$GPRMC,174048.000,A,4255.0170,N,08913.7438,W,24.95,270.07,190320,,,A*48
$GPVTG,270.07,T,,M,24.95,N,46.24,K,A*31
$GPGGA,174058.000,4255.0169,N,08913.8271,W,1,8,1.05,273.1,M,-34.2,M,,*65
$GPGSA,A,3,07,26,30,27,08,04,09,16,,,,,1.37,1.05,0.87*0B
$GPRMC,174058.000,A,4255.0169,N,08913.8271,W,14.54,270.54,190320,,,A*4D
$GPVTG,270.54,T,,M,14.54,N,26.94,K,A*34
$GPGGA,174108.000,4255.0445,N,08913.8382,W,1,8,1.20,273.5,M,-34.2,M,,*64
$GPGSA,A,3,07,26,30,27,08,04,09,16,,,,,2.15,1.20,1.79*0F
$GPRMC,174108.000,A,4255.0445,N,08913.8382,W,18.67,358.46,190320,,,A*4B
$GPVTG,358.46,T,,M,18.67,N,34.59,K,A*32
$GPGGA,174118.000,4255.0981,N,08913.8366,W,1,8,1.20,274.2,M,-34.2,M,,*6A
$GPGSA,A,3,07,26,30,27,08,04,09,16,,,,,2.15,1.20,1.79*0F
$GPRMC,174118.000,A,4255.0981,N,08913.8366,W,17.99,359.85,190320,,,A*45
$GPVTG,359.85,T,,M,17.99,N,33.33,K,A*39
$GPGGA,174128.000,4255.1213,N,08913.8596,W,1,8,1.05,275.0,M,-34.2,M,,*65
$GPGSA,A,3,07,26,30,27,08,04,09,16,,,,,1.37,1.05,0.87*0B
$GPRMC,174128.000,A,4255.1213,N,08913.8596,W,11.78,268.58,190320,,,A*44
$GPVTG,268.58,T,,M,11.78,N,21.82,K,A*3A
$GPGGA,174138.000,4255.1078,N,08913.8755,W,1,8,1.05,274.0,M,-34.2,M,,*67
$GPGSA,A,3,07,26,30,27,08,04,09,16,,,,,1.37,1.05,0.87*0B
$GPRMC,174138.000,A,4255.1078,N,08913.8755,W,4.49,183.10,190320,,,A*7B
$GPVTG,183.10,T,,M,4.49,N,8.32,K,A*36
$GPGGA,174148.000,4255.1046,N,08913.8788,W,1,8,1.05,273.4,M,-34.2,M,,*6E
$GPGSA,A,3,07,26,30,27,08,04,09,16,,,,,1.37,1.05,0.87*0B
$GPRMC,174148.000,A,4255.1046,N,08913.8788,W,0.00,239.56,190320,,,A*78
$GPVTG,239.56,T,,M,0.00,N,0.00,K,A*36
$GPGGA,174158.000,4255.1046,N,08913.8788,W,1,8,1.05,273.4,M,-34.2,M,,*6F
$GPGSA,A,3,07,26,30,27,08,04,09,16,,,,,1.37,1.05,0.87*0B
$GPRMC,174158.000,A,4255.1046,N,08913.8788,W,0.00,239.56,190320,,,A*79
$GPVTG,239.56,T,,M,0.00,N,0.00,K,A*36
$GPGGA,184249.742,,,,,0,0,,,M,,M,,*4B
$GPGSA,A,1,,,,,,,,,,,,,,,*1E
$GPRMC,184249.742,V,,,,,0.00,0.00,190320,,,N*47
$GPVTG,0.00,T,,M,0.00,N,0.00,K,N*32
$GPGGA,184259.742,,,,,0,0,,,M,,M,,*4A
$GPGSA,A,1,,,,,,,,,,,,,,,*1E
$GPRMC,184259.742,V,,,,,0.00,0.00,190320,,,N*46
$GPVTG,0.00,T,,M,0.00,N,0.00,K,N*32
$GPGGA,195638.849,,,,,0,5,,,M,,M,,*48
$GPGSA,A,1,,,,,,,,,,,,,,,*1E
$GPRMC,195638.849,V,,,,,0.93,216.97,190320,,,N*40
$GPVTG,216.97,T,,M,0.93,N,1.73,K,N*36
$GPGGA,195648.814,,,,,0,5,,,M,,M,,*47
$GPGSA,A,1,,,,,,,,,,,,,,,*1E
$GPRMC,195648.814,V,,,,,0.81,190.13,190320,,,N*4D
$GPVTG,190.13,T,,M,0.81,N,1.49,K,N*3D
$GPGGA,195659.000,4255.0962,N,08913.8540,W,1,5,1.80,254.3,M,-34.2,M,,*6C
$GPGSA,A,3,30,07,08,27,09,,,,,,,,1.99,1.80,0.86*04
$GPRMC,195659.000,A,4255.0962,N,08913.8540,W,0.18,102.61,190320,,,A*7E
$GPVTG,102.61,T,,M,0.18,N,0.32,K,A*31
$GPGGA,195709.000,4255.0982,N,08913.8543,W,1,5,1.80,267.7,M,-34.2,M,,*61
$GPGSA,A,3,30,07,08,27,09,,,,,,,,2.00,1.80,0.86*07
$GPRMC,195709.000,A,4255.0982,N,08913.8543,W,1.78,308.37,190320,,,A*7B
$GPVTG,308.37,T,,M,1.78,N,3.29,K,A*34
$GPGGA,195719.000,4255.1015,N,08913.8539,W,1,5,1.80,269.0,M,-34.2,M,,*62
$GPGSA,A,3,30,07,08,27,09,,,,,,,,2.00,1.80,0.86*07
$GPRMC,195719.000,A,4255.1015,N,08913.8539,W,0.98,305.65,190320,,,A*74
$GPVTG,305.65,T,,M,0.98,N,1.81,K,A*31
$GPGGA,195729.000,4255.0976,N,08913.8475,W,1,5,1.80,283.6,M,-34.2,M,,*67
$GPGSA,A,3,30,07,08,27,09,,,,,,,,2.00,1.80,0.86*07
$GPRMC,195729.000,A,4255.0976,N,08913.8475,W,0.00,319.14,190320,,,A*79
$GPVTG,319.14,T,,M,0.00,N,0.00,K,A*33
$GPGGA,195739.000,4255.0976,N,08913.8475,W,1,5,1.81,283.6,M,-34.2,M,,*67
$GPGSA,A,3,30,07,08,27,09,,,,,,,,2.00,1.81,0.86*06
$GPRMC,195739.000,A,4255.0976,N,08913.8475,W,0.00,319.14,190320,,,A*78
$GPVTG,319.14,T,,M,0.00,N,0.00,K,A*33
$GPGGA,195749.000,4255.0976,N,08913.8475,W,1,5,1.81,283.6,M,-34.2,M,,*60
$GPGSA,A,3,30,07,08,27,09,,,,,,,,2.00,1.81,0.86*06
$GPRMC,195749.000,A,4255.0976,N,08913.8475,W,0.00,319.14,190320,,,A*7F
$GPVTG,319.14,T,,M,0.00,N,0.00,K,A*33
$GPGGA,195759.000,4255.0976,N,08913.8475,W,1,5,1.81,283.6,M,-34.2,M,,*61
$GPGSA,A,3,30,07,08,27,09,,,,,,,,2.01,1.81,0.86*07
$GPRMC,195759.000,A,4255.0976,N,08913.8475,W,0.00,319.14,190320,,,A*7E
$GPVTG,319.14,T,,M,0.00,N,0.00,K,A*33
$GPGGA,195809.000,4255.0976,N,08913.8475,W,1,5,2.03,283.6,M,-34.2,M,,*62
$GPGSA,A,3,30,07,08,27,09,,,,,,,,2.64,2.03,1.69*0D
$GPRMC,195809.000,A,4255.0976,N,08913.8475,W,0.00,319.14,190320,,,A*74
$GPVTG,319.14,T,,M,0.00,N,0.00,K,A*33
$GPGGA,171446.000,4255.0975,N,08913.8539,W,1,7,1.25,243.9,M,-34.2,M,,*63
$GPGSA,A,3,16,08,04,26,27,07,09,,,,,,2.86,1.25,2.57*0C
$GPRMC,171446.000,A,4255.0975,N,08913.8539,W,0.00,158.44,220320,,,A*79
$GPVTG,158.44,T,,M,0.00,N,0.00,K,A*31
$GPGGA,171447.000,4255.0975,N,08913.8539,W,1,7,1.25,243.9,M,-34.2,M,,*62
$GPGSA,A,3,16,08,04,26,27,07,09,,,,,,2.86,1.25,2.57*0C
$GPRMC,171447.000,A,4255.0975,N,08913.8539,W,0.00,158.44,220320,,,A*78
$GPVTG,158.44,T,,M,0.00,N,0.00,K,A*31
$GPGGA,171448.000,4255.0975,N,08913.8539,W,1,7,1.25,243.9,M,-34.2,M,,*6D
$GPGSA,A,3,16,08,04,26,27,07,09,,,,,,2.86,1.25,2.57*0C
$GPRMC,171448.000,A,4255.0975,N,08913.8539,W,0.00,158.44,220320,,,A*77
$GPVTG,158.44,T,,M,0.00,N,0.00,K,A*31
$GPGGA,171449.000,4255.0975,N,08913.8539,W,1,7,1.25,243.9,M,-34.2,M,,*6C
$GPGSA,A,3,16,08,04,26,27,07,09,,,,,,2.86,1.25,2.57*0C
$GPRMC,171449.000,A,4255.0975,N,08913.8539,W,0.00,158.44,220320,,,A*76
$GPVTG,158.44,T,,M,0.00,N,0.00,K,A*31
$GPGGA,171450.000,4255.0975,N,08913.8539,W,1,7,1.25,243.9,M,-34.2,M,,*64
$GPGSA,A,3,16,08,04,26,27,07,09,,,,,,2.86,1.25,2.57*0C
$GPRMC,171450.000,A,4255.0975,N,08913.8539,W,0.00,158.44,220320,,,A*7E
$GPVTG,158.44,T,,M,0.00,N,0.00,K,A*31
$GPGGA,171451.000,4255.0975,N,08913.8539,W,1,7,1.25,243.9,M,-34.2,M,,*65
$GPGSA,A,3,16,08,04,26,27,07,09,,,,,,2.86,1.25,2.57*0C
$GPRMC,171451.000,A,4255.0975,N,08913.8539,W,0.00,158.44,220320,,,A*7F
$GPVTG,158.44,T,,M,0.00,N,0.00,K,A*31
$GPGGA,171452.000,4255.0975,N,08913.8539,W,1,7,1.25,243.9,M,-34.2,M,,*66
$GPGSA,A,3,16,08,04,26,27,07,09,,,,,,2.86,1.25,2.57*0C
$GPRMC,171452.000,A,4255.0975,N,08913.8539,W,0.00,158.44,220320,,,A*7C
$GPVTG,158.44,T,,M,0.00,N,0.00,K,A*31
$GPGGA,171454.000,4255.0975,N,08913.8539,W,1,7,1.25,243.9,M,-34.2,M,,*60
$GPGSA,A,3,16,08,04,26,27,07,09,,,,,,2.86,1.25,2.57*0C
$GPRMC,171454.000,A,4255.0975,N,08913.8539,W,0.00,158.44,220320,,,A*7A
$GPVTG,158.44,T,,M,0.00,N,0.00,K,A*31
$GPGGA,171456.000,4255.0975,N,08913.8539,W,1,7,1.25,243.9,M,-34.2,M,,*62
$GPGSA,A,3,16,08,04,26,27,07,09,,,,,,2.86,1.25,2.57*0C
$GPRMC,171456.000,A,4255.0975,N,08913.8539,W,0.00,158.44,220320,,,A*78
$GPVTG,158.44,T,,M,0.00,N,0.00,K,A*31
$GPGGA,171458.000,4255.0975,N,08913.8539,W,1,7,1.25,243.9,M,-34.2,M,,*6C
$GPGSA,A,3,16,08,04,26,27,07,09,,,,,,2.87,1.25,2.58*02
$GPRMC,171458.000,A,4255.0975,N,08913.8539,W,0.00,158.44,220320,,,A*76
$GPVTG,158.44,T,,M,0.00,N,0.00,K,A*31
$GPGGA,171500.000,4255.0975,N,08913.8539,W,1,7,1.26,243.9,M,-34.2,M,,*63
$GPGSA,A,3,16,08,04,26,27,07,09,,,,,,2.87,1.26,2.58*01
$GPRMC,171500.000,A,4255.0975,N,08913.8539,W,0.00,158.44,220320,,,A*7A
$GPVTG,158.44,T,,M,0.00,N,0.00,K,A*31
$GPGGA,171502.000,4255.0975,N,08913.8539,W,1,7,1.26,243.9,M,-34.2,M,,*61
$GPGSA,A,3,16,08,04,26,27,07,09,,,,,,2.87,1.26,2.58*01
$GPRMC,171502.000,A,4255.0975,N,08913.8539,W,0.00,158.44,220320,,,A*78
$GPVTG,158.44,T,,M,0.00,N,0.00,K,A*31
$GPGGA,171504.000,4255.0975,N,08913.8539,W,1,7,1.26,243.9,M,-34.2,M,,*67
$GPGSA,A,3,16,08,04,26,27,07,09,,,,,,2.87,1.26,2.58*01
$GPRMC,171504.000,A,4255.0975,N,08913.8539,W,0.00,158.44,220320,,,A*7E
$GPVTG,158.44,T,,M,0.00,N,0.00,K,A*31
$GPGGA,171506.000,4255.0975,N,08913.8539,W,1,7,1.26,243.9,M,-34.2,M,,*65
$GPGSA,A,3,16,08,04,26,27,07,09,,,,,,2.87,1.26,2.58*01
$GPRMC,171506.000,A,4255.0975,N,08913.8539,W,0.00,158.44,220320,,,A*7C
$GPVTG,158.44,T,,M,0.00,N,0.00,K,A*31
$GPGGA,171508.000,4255.0975,N,08913.8539,W,1,7,1.26,243.9,M,-34.2,M,,*6B
$GPGSA,A,3,16,08,04,26,27,07,09,,,,,,2.87,1.26,2.58*01
$GPRMC,171508.000,A,4255.0975,N,08913.8539,W,0.00,158.44,220320,,,A*72
$GPVTG,158.44,T,,M,0.00,N,0.00,K,A*31
$GPGGA,171510.000,4255.0975,N,08913.8539,W,1,7,1.26,243.9,M,-34.2,M,,*62
$GPGSA,A,3,16,08,04,26,27,07,09,,,,,,2.87,1.26,2.58*01
$GPRMC,171510.000,A,4255.0975,N,08913.8539,W,0.00,158.44,220320,,,A*7B
$GPVTG,158.44,T,,M,0.00,N,0.00,K,A*31
$GPGGA,171512.000,4255.0975,N,08913.8539,W,1,7,1.26,243.9,M,-34.2,M,,*60
$GPGSA,A,3,16,08,04,26,27,07,09,,,,,,2.87,1.26,2.58*01
$GPRMC,171512.000,A,4255.0975,N,08913.8539,W,0.00,158.44,220320,,,A*79
$GPVTG,158.44,T,,M,0.00,N,0.00,K,A*31
$GPGGA,171514.000,4255.0975,N,08913.8539,W,1,7,1.26,243.9,M,-34.2,M,,*66
$GPGSA,A,3,16,08,04,26,27,07,09,,,,,,2.87,1.26,2.58*01
$GPRMC,171514.000,A,4255.0975,N,08913.8539,W,0.00,158.44,220320,,,A*7F
$GPVTG,158.44,T,,M,0.00,N,0.00,K,A*31
$GPGGA,171516.000,4255.0975,N,08913.8539,W,1,7,1.26,243.9,M,-34.2,M,,*64
$GPGSA,A,3,16,08,04,26,27,07,09,,,,,,2.88,1.26,2.59*0F
$GPRMC,171516.000,A,4255.0975,N,08913.8539,W,0.00,158.44,220320,,,A*7D
$GPVTG,158.44,T,,M,0.00,N,0.00,K,A*31
$GPGGA,171518.000,4255.0975,N,08913.8539,W,1,7,1.26,243.9,M,-34.2,M,,*6A
$GPGSA,A,3,16,08,04,26,27,07,09,,,,,,2.88,1.26,2.59*0F
$GPRMC,171518.000,A,4255.0975,N,08913.8539,W,0.00,158.44,220320,,,A*73
$GPVTG,158.44,T,,M,0.00,N,0.00,K,A*31
$GPGGA,171520.000,4255.0975,N,08913.8539,W,1,7,1.26,243.9,M,-34.2,M,,*61
$GPGSA,A,3,16,08,04,26,27,07,09,,,,,,2.88,1.26,2.59*0F
$GPRMC,171520.000,A,4255.0975,N,08913.8539,W,0.00,158.44,220320,,,A*78
$GPVTG,158.44,T,,M,0.00,N,0.00,K,A*31
$GPGGA,171522.000,4255.0975,N,08913.8539,W,1,7,1.26,243.9,M,-34.2,M,,*63
$GPGSA,A,3,16,08,04,26,27,07,09,,,,,,2.88,1.26,2.59*0F
$GPRMC,171522.000,A,4255.0975,N,08913.8539,W,0.00,158.44,220320,,,A*7A
$GPVTG,158.44,T,,M,0.00,N,0.00,K,A*31
$GPGGA,171524.000,4255.0975,N,08913.8539,W,1,7,1.26,243.9,M,-34.2,M,,*65
$GPGSA,A,3,16,08,04,26,27,07,09,,,,,,2.88,1.26,2.59*0F
$GPRMC,171524.000,A,4255.0975,N,08913.8539,W,0.00,158.44,220320,,,A*7C
$GPVTG,158.44,T,,M,0.00,N,0.00,K,A*31
$GPGGA,171526.000,4255.0975,N,08913.8539,W,1,7,1.26,243.9,M,-34.2,M,,*67
$GPGSA,A,3,16,08,04,26,27,07,09,,,,,,2.88,1.26,2.59*0F
$GPRMC,171526.000,A,4255.0975,N,08913.8539,W,0.00,158.44,220320,,,A*7E
$GPVTG,158.44,T,,M,0.00,N,0.00,K,A*31
$GPGGA,171528.000,4255.0975,N,08913.8539,W,1,7,1.26,243.9,M,-34.2,M,,*69
$GPGSA,A,3,16,08,04,26,27,07,09,,,,,,2.88,1.26,2.59*0F
$GPRMC,171528.000,A,4255.0975,N,08913.8539,W,0.00,158.44,220320,,,A*70
$GPVTG,158.44,T,,M,0.00,N,0.00,K,A*31
$GPGGA,171530.000,4255.0975,N,08913.8539,W,1,7,1.26,243.9,M,-34.2,M,,*60
$GPGSA,A,3,16,08,04,26,27,07,09,,,,,,2.88,1.26,2.59*0F
$GPRMC,171530.000,A,4255.0975,N,08913.8539,W,0.00,158.44,220320,,,A*79
$GPVTG,158.44,T,,M,0.00,N,0.00,K,A*31
$GPGGA,171532.000,4255.0975,N,08913.8539,W,1,7,1.26,243.9,M,-34.2,M,,*62
$GPGSA,A,3,16,08,04,26,27,07,09,,,,,,2.88,1.26,2.59*0F
$GPRMC,171532.000,A,4255.0975,N,08913.8539,W,0.00,158.44,220320,,,A*7B
$GPVTG,158.44,T,,M,0.00,N,0.00,K,A*31
$GPGGA,171534.000,4255.0975,N,08913.8539,W,1,7,1.26,243.9,M,-34.2,M,,*64
$GPGSA,A,3,16,08,04,26,27,07,09,,,,,,2.88,1.26,2.59*0F
$GPRMC,171534.000,A,4255.0975,N,08913.8539,W,0.00,158.44,220320,,,A*7D
$GPVTG,158.44,T,,M,0.00,N,0.00,K,A*31
$GPGGA,171536.000,4255.0975,N,08913.8539,W,1,7,1.26,243.9,M,-34.2,M,,*66
$GPGSA,A,3,16,08,04,26,27,07,09,,,,,,2.88,1.26,2.59*0F
$GPRMC,171536.000,A,4255.0975,N,08913.8539,W,0.00,158.44,220320,,,A*7F
$GPVTG,158.44,T,,M,0.00,N,0.00,K,A*31
$GPGGA,171538.000,4255.0975,N,08913.8539,W,1,7,1.26,243.9,M,-34.2,M,,*68
$GPGSA,A,3,16,08,04,26,27,07,09,,,,,,2.89,1.26,2.59*0E
$GPRMC,171538.000,A,4255.0975,N,08913.8539,W,0.00,158.44,220320,,,A*71
$GPVTG,158.44,T,,M,0.00,N,0.00,K,A*31
$GPGGA,171540.000,4255.0975,N,08913.8539,W,1,7,1.26,243.9,M,-34.2,M,,*67
$GPGSA,A,3,16,08,04,26,27,07,09,,,,,,2.89,1.26,2.60*04
$GPRMC,171540.000,A,4255.0975,N,08913.8539,W,0.00,158.44,220320,,,A*7E
$GPVTG,158.44,T,,M,0.00,N,0.00,K,A*31
$GPGGA,171542.000,4255.0975,N,08913.8539,W,1,7,1.26,243.9,M,-34.2,M,,*65
$GPGSA,A,3,16,08,04,26,27,07,09,,,,,,2.89,1.26,2.60*04
$GPRMC,171542.000,A,4255.0975,N,08913.8539,W,0.00,158.44,220320,,,A*7C
$GPVTG,158.44,T,,M,0.00,N,0.00,K,A*31
$GPGGA,171544.000,4255.0975,N,08913.8539,W,1,7,1.26,243.9,M,-34.2,M,,*63
$GPGSA,A,3,16,08,04,26,27,07,09,,,,,,2.89,1.26,2.60*04
$GPRMC,171544.000,A,4255.0975,N,08913.8539,W,0.00,158.44,220320,,,A*7A
$GPVTG,158.44,T,,M,0.00,N,0.00,K,A*31
$GPGGA,171546.000,4255.0975,N,08913.8539,W,1,7,1.26,243.9,M,-34.2,M,,*61
$GPGSA,A,3,16,08,04,26,27,07,09,,,,,,2.89,1.26,2.60*04
$GPRMC,171546.000,A,4255.0975,N,08913.8539,W,0.00,158.44,220320,,,A*78
$GPVTG,158.44,T,,M,0.00,N,0.00,K,A*31
$GPGGA,171548.000,4255.0975,N,08913.8539,W,1,7,1.26,243.9,M,-34.2,M,,*6F
$GPGSA,A,3,16,08,04,26,27,07,09,,,,,,2.89,1.26,2.60*04
$GPRMC,171548.000,A,4255.0975,N,08913.8539,W,0.00,158.44,220320,,,A*76
$GPVTG,158.44,T,,M,0.00,N,0.00,K,A*31
$GPGGA,171550.000,4255.0975,N,08913.8539,W,1,7,1.26,243.9,M,-34.2,M,,*66
$GPGSA,A,3,16,08,04,26,27,07,09,,,,,,2.89,1.26,2.60*04
$GPRMC,171550.000,A,4255.0975,N,08913.8539,W,0.00,158.44,220320,,,A*7F
$GPVTG,158.44,T,,M,0.00,N,0.00,K,A*31
$GPGGA,171552.000,4255.0975,N,08913.8539,W,1,7,1.26,243.9,M,-34.2,M,,*64
$GPGSA,A,3,16,08,04,26,27,07,09,,,,,,2.89,1.26,2.60*04
$GPRMC,171552.000,A,4255.0975,N,08913.8539,W,0.00,158.44,220320,,,A*7D
$GPVTG,158.44,T,,M,0.00,N,0.00,K,A*31
$GPGGA,171554.000,4255.0975,N,08913.8539,W,1,7,1.27,243.9,M,-34.2,M,,*63
$GPGSA,A,3,16,08,04,26,27,07,09,,,,,,2.90,1.27,2.60*0D
$GPRMC,171554.000,A,4255.0975,N,08913.8539,W,0.00,158.44,220320,,,A*7B
$GPVTG,158.44,T,,M,0.00,N,0.00,K,A*31
$GPGGA,171556.000,4255.0975,N,08913.8539,W,1,7,1.27,243.9,M,-34.2,M,,*61
$GPGSA,A,3,16,08,04,26,27,07,09,,,,,,2.90,1.27,2.61*0C
$GPRMC,171556.000,A,4255.0975,N,08913.8539,W,0.00,158.44,220320,,,A*79
$GPVTG,158.44,T,,M,0.00,N,0.00,K,A*31
$GPGGA,171558.000,4255.0975,N,08913.8539,W,1,7,1.27,243.9,M,-34.2,M,,*6F
$GPGSA,A,3,16,08,04,26,27,07,09,,,,,,2.90,1.27,2.61*0C
$GPRMC,171558.000,A,4255.0975,N,08913.8539,W,0.00,158.44,220320,,,A*77
$GPVTG,158.44,T,,M,0.00,N,0.00,K,A*31
$GPGGA,171600.000,4255.0975,N,08913.8539,W,1,7,1.27,243.9,M,-34.2,M,,*61
$GPGSA,A,3,16,08,04,26,27,07,09,,,,,,2.90,1.27,2.61*0C
$GPRMC,171600.000,A,4255.0975,N,08913.8539,W,0.00,158.44,220320,,,A*79
$GPVTG,158.44,T,,M,0.00,N,0.00,K,A*31
$GPGGA,171602.000,4255.0975,N,08913.8539,W,1,7,1.27,243.9,M,-34.2,M,,*63
$GPGSA,A,3,16,08,04,26,27,07,09,,,,,,2.90,1.27,2.61*0C
$GPRMC,171602.000,A,4255.0975,N,08913.8539,W,0.00,158.44,220320,,,A*7B
$GPVTG,158.44,T,,M,0.00,N,0.00,K,A*31
$GPGGA,171604.000,4255.0975,N,08913.8539,W,1,7,1.27,243.9,M,-34.2,M,,*65
$GPGSA,A,3,16,08,04,26,27,07,09,,,,,,2.90,1.27,2.61*0C
$GPRMC,171604.000,A,4255.0975,N,08913.8539,W,0.00,158.44,220320,,,A*7D
$GPVTG,158.44,T,,M,0.00,N,0.00,K,A*31
$GPGGA,171606.000,4255.0975,N,08913.8539,W,1,7,1.27,243.9,M,-34.2,M,,*67
$GPGSA,A,3,16,08,04,26,27,07,09,,,,,,2.90,1.27,2.61*0C
$GPRMC,171606.000,A,4255.0975,N,08913.8539,W,0.00,158.44,220320,,,A*7F
$GPVTG,158.44,T,,M,0.00,N,0.00,K,A*31
$GPGGA,171608.000,4255.0975,N,08913.8539,W,1,7,1.27,243.9,M,-34.2,M,,*69
$GPGSA,A,3,16,08,04,26,27,07,09,,,,,,2.90,1.27,2.61*0C
$GPRMC,171608.000,A,4255.0975,N,08913.8539,W,0.00,158.44,220320,,,A*71
$GPVTG,158.44,T,,M,0.00,N,0.00,K,A*31
$GPGGA,171610.000,4255.0975,N,08913.8539,W,1,7,1.27,243.9,M,-34.2,M,,*60
$GPGSA,A,3,16,08,04,26,27,07,09,,,,,,2.90,1.27,2.61*0C
$GPRMC,171610.000,A,4255.0975,N,08913.8539,W,0.00,158.44,220320,,,A*78
$GPVTG,158.44,T,,M,0.00,N,0.00,K,A*31
$GPGGA,171612.000,4255.0975,N,08913.8539,W,1,7,1.27,243.9,M,-34.2,M,,*62
$GPGSA,A,3,16,08,04,26,27,07,09,,,,,,2.90,1.27,2.61*0C
$GPRMC,171612.000,A,4255.0975,N,08913.8539,W,0.00,158.44,220320,,,A*7A
$GPVTG,158.44,T,,M,0.00,N,0.00,K,A*31
$GPGGA,171614.000,4255.0975,N,08913.8539,W,1,7,1.27,243.9,M,-34.2,M,,*64
$GPGSA,A,3,16,08,04,26,27,07,09,,,,,,2.91,1.27,2.61*0D
$GPRMC,171614.000,A,4255.0975,N,08913.8539,W,0.00,158.44,220320,,,A*7C
$GPVTG,158.44,T,,M,0.00,N,0.00,K,A*31
$GPGGA,171616.000,4255.0975,N,08913.8539,W,1,8,1.02,243.9,M,-34.2,M,,*6E
$GPGSA,A,3,16,08,04,26,11,27,07,09,,,,,1.76,1.02,1.43*03
$GPRMC,171616.000,A,4255.0975,N,08913.8539,W,0.00,158.44,220320,,,A*7E
$GPVTG,158.44,T,,M,0.00,N,0.00,K,A*31
$GPGGA,171618.000,4255.0975,N,08913.8539,W,1,8,1.02,243.9,M,-34.2,M,,*60
$GPGSA,A,3,16,08,04,26,11,27,07,09,,,,,1.76,1.02,1.43*03
$GPRMC,171618.000,A,4255.0975,N,08913.8539,W,0.00,158.44,220320,,,A*70
$GPVTG,158.44,T,,M,0.00,N,0.00,K,A*31
$GPGGA,171620.000,4255.0975,N,08913.8539,W,1,8,1.02,243.9,M,-34.2,M,,*6B
$GPGSA,A,3,16,08,04,26,11,27,07,09,,,,,1.76,1.02,1.43*03
$GPRMC,171620.000,A,4255.0975,N,08913.8539,W,0.00,158.44,220320,,,A*7B
$GPVTG,158.44,T,,M,0.00,N,0.00,K,A*31
$GPGGA,171622.000,4255.0975,N,08913.8539,W,1,8,1.02,243.9,M,-34.2,M,,*69
$GPGSA,A,3,16,08,04,26,11,27,07,09,,,,,1.76,1.02,1.43*03
$GPRMC,171622.000,A,4255.0975,N,08913.8539,W,0.00,158.44,220320,,,A*79
$GPVTG,158.44,T,,M,0.00,N,0.00,K,A*31
$GPGGA,171624.000,4255.0975,N,08913.8539,W,1,8,1.02,243.9,M,-34.2,M,,*6F
$GPGSA,A,3,16,08,04,26,11,27,07,09,,,,,1.76,1.02,1.43*03
$GPRMC,171624.000,A,4255.0975,N,08913.8539,W,0.00,158.44,220320,,,A*7F
$GPVTG,158.44,T,,M,0.00,N,0.00,K,A*31
$GPGGA,171626.000,4255.0975,N,08913.8539,W,1,8,1.02,243.9,M,-34.2,M,,*6D
$GPGSA,A,3,16,08,04,26,11,27,07,09,,,,,1.76,1.02,1.43*03
$GPRMC,171626.000,A,4255.0975,N,08913.8539,W,0.00,158.44,220320,,,A*7D
$GPVTG,158.44,T,,M,0.00,N,0.00,K,A*31
$GPGGA,171628.000,4255.0975,N,08913.8539,W,1,8,1.02,243.9,M,-34.2,M,,*63
$GPGSA,A,3,16,08,04,26,11,27,07,09,,,,,1.76,1.02,1.43*03
$GPRMC,171628.000,A,4255.0975,N,08913.8539,W,0.00,158.44,220320,,,A*73
$GPVTG,158.44,T,,M,0.00,N,0.00,K,A*31
